Station Code,Monitoring Location,State,Type,full_address,Latitude,Longitude,Avg_Temp,Avg_Humidity,Avg_Wind,Weather_Main,Region_Cluster,Temperature (°C) Min,Temperature (°C) Max,Dissolved Oxygen(mg/L) Min,Dissolved Oxygen(mg/L) Max,pH Min,pH Max,Conductivity(µmho/cm) Min,Conductivity(µmho/cm) Max,BOD(mg/L) Min,BOD(mg/L) Max,Nitrate N(mg/L) Min,Nitrate N(mg/L) Max,Fecal Coliform(MPN/100ml) Min,Fecal Coliform(MPN/100ml) Max,Total Coliform(MPN/100ml) Min,Total Coliform(MPN/100ml) Max,Fecal Streptococci(MPN/100ml) Min,Fecal Streptococci(MPN/100ml) Max,WQI_Min,WQI_Max,WQI_Average
1448.0,"River Nagavali At Thotapalli Regulator, Thotapalli (V), Garugubilli (M)",Andhra Pradesh,,"River Nagavali At Thotapalli Regulator, Thotapalli (V), Garugubilli (M), Andhra Pradesh, India",18.784865,83.5090195,29.14,71.0,2.15,Clouds,1,24.0,34.0,5.7,7.3,7.0,8.4,219.0,655.0,1.2,2.8,0.3,6.42,3.0,20.0,75.0,150.0,2.0,3.0,23.60911413123069,42.66009074551837,33.13460243837453
4351.0,"River Nagavali Immediate Border Between Andhra Pradesh & Orissa States, Near Sivalayam, Kuneru (V), Komarada (M)",Andhra Pradesh,,"River Nagavali Immediate Border Between Andhra Pradesh & Orissa States, Near Sivalayam, Kuneru (V), Komarada (M), Andhra Pradesh, India",18.9677927,83.43500619999999,27.1,82.0,2.05,Clouds,1,24.0,34.0,5.2,7.5,6.8,8.3,192.0,501.0,1.0,2.9,0.32,3.3,7.0,20.0,120.0,240.0,2.0,3.0,21.575945104531105,42.47976618803664,32.027855646283875
4346.0,"River Nagavali Near Nh- 16 Bridge, Upstream (U/S) Of Srikakulam Town, Before Confluence Of Town Sewage",Andhra Pradesh,,"River Nagavali Near Nh- 16 Bridge, Upstream (U/S) Of Srikakulam Town, Before Confluence Of Town Sewage, Andhra Pradesh, India",18.3142332,83.8755627,30.0,72.0,2.07,Clouds,1,24.0,37.0,5.8,7.6,6.4,8.4,289.0,396.0,1.3,2.6,0.32,2.12,4.0,11.0,120.0,240.0,2.0,3.0,20.794839474967144,40.392696574968504,30.593768024967822
4347.0,"River Nagavali Near Water Pump House (Killipalem) , Down Stream (D/S) Of Srikakulam Town, After Confluence Of Town Sewage",Andhra Pradesh,,"River Nagavali Near Water Pump House (Killipalem) , Down Stream (D/S) Of Srikakulam Town, After Confluence Of Town Sewage, Andhra Pradesh, India",18.27089033430217,83.9106808595696,29.98,73.0,2.47,Clouds,1,24.0,37.0,5.4,8.0,6.3,8.5,275.0,398.0,1.5,2.7,0.3,1.82,7.0,20.0,210.0,460.0,2.0,3.0,22.476661641019092,41.17131118650658,31.823986413762835
2352.0,"River Vamsadhara, Gara (V & M)",Andhra Pradesh,,"River Vamsadhara, Gara (V & M), Andhra Pradesh, India",18.3313111,84.0550885,29.88,73.0,3.09,Clouds,1,20.0,36.0,5.2,8.2,7.1,8.3,165.0,349.0,1.3,2.8,0.3,1.62,3.0,11.0,75.0,210.0,2.0,3.0,25.783440555750172,40.513437252628805,33.14843890418949
4348.0,"River Vamsadhara, Immediate Border Between Andhra Pradesh & Orissa States, Near Lalithamba Temple, Battili (V) Bhamini (M)",Andhra Pradesh,,"River Vamsadhara, Immediate Border Between Andhra Pradesh & Orissa States, Near Lalithamba Temple, Battili (V) Bhamini (M), Andhra Pradesh, India",19.0122905,83.7857627,28.0,79.0,1.42,Clouds,1,23.0,38.0,5.8,8.5,6.6,8.5,163.0,428.0,1.0,2.8,0.3,1.22,4.0,14.0,120.0,210.0,2.0,3.0,19.487698001805107,41.19826904396786,30.342983522886485
30040.0,"River Daman Ganga At Zeri Causeway Bridge, Daman (Gujarat And Ut Of Daman,Diu,Dadar & Nagar Haveli And Gujarat)","Daman And Diu, Dadra And Nagar Haveli",,"River Daman Ganga At Zeri Causeway Bridge, Daman (Gujarat And Ut Of Daman,Diu,Dadar & Nagar Haveli And Gujarat), Daman And Diu, Dadra And Nagar Haveli, India",22.6708317,71.5723953,29.03,70.0,4.21,Clouds,5,23.0,29.0,0.3,7.8,7.4,7.8,220.0,662.4912944738834,2.5,8.4,0.4129202168861347,2.5,95.31980715146645,636.0863579474343,395.1527835914609,1565.5568332596197,5.957692307692308,91.9023746701847,44.9856113290931,84.51156460913766,64.74858796911539
4372.0,"River Gostani Sample Before Confluence With M/S Delta Paper Mill Effluents, Vendra (V), Palakoderu (M)",Andhra Pradesh,,"River Gostani Sample Before Confluence With M/S Delta Paper Mill Effluents, Vendra (V), Palakoderu (M), Andhra Pradesh, India",16.578777,81.57434459999999,29.65,66.0,0.28,Clouds,0,24.0,30.0,0.3,5.6,7.1,8.1,714.0,662.4912944738834,2.5,3.3000373692077725,1.23,7.05,4.0,14.0,43.0,460.0,2.0,2.0,43.2455173159042,47.67535662253201,45.46043696921811
4373.0,"River Gostani Sample After Confluence With M/S Delta Papeer Mill Effluents, Bendra, Palakoderu (M), But Before Confluence With Yanamadurru Drain",Andhra Pradesh,,"River Gostani Sample After Confluence With M/S Delta Papeer Mill Effluents, Bendra, Palakoderu (M), But Before Confluence With Yanamadurru Drain, Andhra Pradesh, India",16.5796122,81.57575179999999,29.65,66.0,0.28,Clouds,0,25.0,30.0,0.3,5.5,7.1,7.9,698.0,662.4912944738834,2.6,3.3000373692077725,0.4129202168861347,6.98,4.0,15.0,120.0,460.0,2.0,2.0,44.03842918016799,46.666069066676236,45.35224912342211
4358.0,"River Gowthami (Godavari) Govalanka, Injaram (V), Near Gmc Balayogi Bridge, Tallarevu (M)",Andhra Pradesh,,"River Gowthami (Godavari) Govalanka, Injaram (V), Near Gmc Balayogi Bridge, Tallarevu (M), Andhra Pradesh, India",16.7308624,82.1786603,28.87,68.0,1.2,Clouds,0,25.0,28.0,6.0,7.4,6.8,7.9,226.0,662.4912944738834,2.0,2.4,0.0,1.73,3.0,9.0,39.0,240.0,2.0,3.0,28.554536669485934,36.13806139891922,32.34629903420257
4365.0,River Vasishta Godavari Upstream Of Narasapuram Town Before Confluence Of Town Sewage,Andhra Pradesh,,"River Vasishta Godavari Upstream Of Narasapuram Town Before Confluence Of Town Sewage, Andhra Pradesh, India",16.4383259,81.7007115,29.55,70.0,0.49,Clouds,0,24.0,32.0,5.4,8.1,6.1,8.4,154.0,662.4912944738834,1.2,2.6,0.3,1.72,4.0,21.0,93.0,240.0,2.0,3.0,18.8465092845452,39.609889601339496,29.228199442942348
4366.0,River Vasishta Godavari Downstream Of Narasapuram Town After Confluence Of Town Sewage,Andhra Pradesh,,"River Vasishta Godavari Downstream Of Narasapuram Town After Confluence Of Town Sewage, Andhra Pradesh, India",16.4383259,81.7007115,29.55,70.0,0.49,Clouds,0,22.0,32.0,5.0,7.2,7.5,8.2,345.0,662.4912944738834,1.0,2.9,0.0,2.25,7.0,15.0,210.0,460.0,2.0,3.0,25.937358689951093,42.32261134970571,34.1299850198284
5149.0,"River Bahuda At Ntr Jalasayam, Kalavagunta (V), Penumuru (M)",Andhra Pradesh,,"River Bahuda At Ntr Jalasayam, Kalavagunta (V), Penumuru (M), Andhra Pradesh, India",13.2832146,79.1329801,29.43,58.0,1.35,Clouds,4,24.0,30.0,5.1,6.0,7.6,8.1,257.53576807228916,1556.0,1.2,2.3,0.34,0.94,114.0,416.0,454.0,980.0,5.957692307692308,91.9023746701847,28.05370283563079,38.72979748812242,33.39175016187661
5155.0,"River Yeleru At Yeleru Reservoir,Yeleswaram (V & M)",Andhra Pradesh,,"River Yeleru At Yeleru Reservoir,Yeleswaram (V & M), Andhra Pradesh, India",17.3281998,82.06795199999999,27.79,74.0,1.95,Clouds,0,24.0,27.0,6.4,7.5,7.3,8.3,243.0,491.0,1.6,2.2,0.32,1.22,2.0,20.0,43.0,240.0,2.0,3.0,27.56195043081434,36.6458430884013,32.10389675960782
5135.0,"River Aie Near Rakhaldubi Dist., Bongaigaon, Assam",Assam,,"River Aie Near Rakhaldubi Dist., Bongaigaon, Assam, Assam, India",26.4921493,90.6456444,27.23,87.0,1.0,Clouds,3,20.0,33.0,5.1,5.5,6.8,7.4,130.0,178.0,2.0,2.6,0.6,1.3,360.0,730.0,1100.0,1500.0,5.957692307692308,290.0,30.073388970284167,38.01190102162362,34.04264499595389
5138.0,"River, Tunia U/S Brpl, Dhaligaon, Dist. Chirang, Assam",Assam,,"River, Tunia U/S Brpl, Dhaligaon, Dist. Chirang, Assam, Assam, India",26.4976984,90.521351,26.81,89.0,0.72,Clouds,3,21.0,35.0,4.4,5.4,6.9,7.5,130.0,168.0,2.0,2.7,0.6,2.1,360.0,720.0,910.0,1600.0,5.957692307692308,290.0,31.73305611629052,39.595892775002596,35.66447444564656
5139.0,"River Jamuna At Doboka Near Bridge, Dist. Hojai",Assam,,"River Jamuna At Doboka Near Bridge, Dist. Hojai, Assam, India",26.0968806,92.7498268,25.47,98.0,1.72,Clouds,3,19.0,30.0,5.0,6.9,6.9,7.6,128.0,164.0,2.1,2.4,0.6,1.6,360.0,940.0,1100.0,2000.0,5.957692307692308,290.0,31.630799413437906,35.4434725396853,33.5371359765616
5140.0,"River Bondanjan, Sluice Gate, Birkuchi Narengi Tiniali, Kharghuli, No. 2",Assam,,"River Bondanjan, Sluice Gate, Birkuchi Narengi Tiniali, Kharghuli, No. 2, Assam, India",26.1862201,91.8440259,27.86,95.0,1.83,Clouds,3,18.0,30.0,4.5,5.4,6.9,7.4,116.0,178.0,2.0,2.6,0.6,2.0,95.31980715146645,2100.0,395.1527835914609,3600.0,5.957692307692308,490.0,31.49892554542419,38.60362306826,35.051274306842096
5141.0,"River Basistha Basistha Chariali, Nutan Bazaar,",Assam,,"River Basistha Basistha Chariali, Nutan Bazaar,, Assam, India",26.1080728,91.7862885,27.86,96.0,1.24,Clouds,3,19.0,33.0,4.8,7.5,6.9,7.8,130.0,168.0,2.0,2.6,0.4,1.4,95.31980715146645,2100.0,395.1527835914609,3600.0,5.957692307692308,490.0,31.02892696258369,37.66538659960642,34.34715678109505
5142.0,"River Pamohi Gachuk, Pamohi Road, Guwahati",Assam,,"River Pamohi Gachuk, Pamohi Road, Guwahati, Assam, India",26.104228,91.6964542,27.99,94.0,0.0,Mist,3,21.0,34.0,4.3,5.4,7.0,7.5,190.0,278.0,2.0,2.7,0.6,2.2,95.31980715146645,2000.0,2400.0,3500.0,5.957692307692308,490.0,32.393947089080754,39.984208026111865,36.189077557596306
5144.0,River Kalanadi Near Bamunjuli Bridge Crossing At Mangaldoi Bhutiachang,Assam,,"River Kalanadi Near Bamunjuli Bridge Crossing At Mangaldoi Bhutiachang, Assam, India",26.7838327,91.8438858,26.22,89.0,0.8,Clouds,3,18.0,29.024965940054496,8.6,8.6,7.2,7.2,194.0,194.0,2.1,2.1,0.9,0.9,95.31980715146645,910.0,2000.0,2000.0,5.957692307692308,290.0,27.755691459742582,27.99693429046437,27.876312875103476
3791.0,"River Kaliani Near Kanaighat Bridge, Kanaighat",Assam,,"River Kaliani Near Kanaighat Bridge, Kanaighat, Assam, India",26.2006043,92.9375739,23.95,98.0,1.65,Clouds,3,19.0,31.0,5.8,9.8,7.0,7.7,120.0,148.0,2.0,2.6,0.5,2.0,360.0,730.0,910.0,1500.0,5.957692307692308,240.0,30.150821189093595,33.14752522877234,31.649173208932964
3796.0,River Kuji (Near New Bogagigaon) Near Water Intake Point For Nf Railway,Assam,,"River Kuji (Near New Bogagigaon) Near Water Intake Point For Nf Railway, Assam, India",26.2006043,92.9375739,23.95,98.0,1.65,Clouds,3,20.0,36.0,5.2,6.1,6.8,7.3,140.0,182.0,2.0,2.6,0.6,2.0,360.0,1100.0,1100.0,2100.0,5.957692307692308,290.0,29.919159974942726,36.642831828757245,33.280995901849984
3797.0,River Manas (Santoshpur) Near Lengtisinga,Assam,,"River Manas (Santoshpur) Near Lengtisinga, Assam, India",26.3201097,90.7366489,28.14,81.0,2.76,Clouds,3,19.0,34.0,5.2,5.6,6.8,7.6,132.0,146.0,2.0,2.7,0.6,1.6,600.0,910.0,1100.0,2100.0,5.957692307692308,290.0,29.990228695996063,39.90752593412638,34.948877315061225
3799.0,River Killing In Morigaon District,Assam,,"River Killing In Morigaon District, Assam, India",26.2599654,92.2630393,25.97,94.0,2.28,Clouds,3,16.0,32.0,5.2,10.9,6.9,7.4,84.0,108.0,1.8,2.5,0.6,1.9,300.0,1100.0,910.0,2100.0,5.957692307692308,490.0,28.836347689653685,28.994256418130448,28.915302053892066
3810.0,River Kulsi At Chaygaon Near Nh37 Crossing,Assam,,"River Kulsi At Chaygaon Near Nh37 Crossing, Assam, India",26.0164894,91.3216731,28.01,94.0,1.05,Clouds,3,20.0,34.0,5.9,9.1,7.1,7.8,96.0,122.0,2.3,2.7,0.7,2.0,610.0,1100.0,1100.0,2100.0,5.957692307692308,290.0,33.12678706716153,35.74165064029159,34.43421885372656
3811.0,River Puthimari Near Puthimari Chowk At Nh Crossing,Assam,,"River Puthimari Near Puthimari Chowk At Nh Crossing, Assam, India",26.3610943,91.6627091,27.99,89.0,2.44,Clouds,3,19.0,34.0,5.7,8.3,7.0,8.0,140.0,178.0,2.1,2.7,0.6,1.2,620.0,930.0,1400.0,2300.0,5.957692307692308,290.0,31.209702725526746,38.0577417230036,34.63372222426517
4344.0,"River Tihu (Near Bridge Along Nh-31) Tihu, Nalbari",Assam,,"River Tihu (Near Bridge Along Nh-31) Tihu, Nalbari, Assam, India",26.475753,91.2674411,27.23,87.0,3.2,Clouds,3,20.0,32.0,5.0,8.7,6.8,7.7,105.0,146.0,2.0,2.5,0.6,1.0,610.0,930.0,1400.0,2000.0,5.957692307692308,290.0,30.302536242402663,34.045636084192616,32.17408616329764
4345.0,"River Singra (Near Bridge Along Nh-37) Boko, Kamrup",Assam,,"River Singra (Near Bridge Along Nh-37) Boko, Kamrup, Assam, India",26.0164894,91.3216731,28.01,94.0,1.05,Clouds,3,19.0,34.0,5.5,10.4,6.9,7.3,102.0,118.0,2.0,2.5,0.6,1.8,360.0,940.0,910.0,2100.0,5.957692307692308,240.0,30.036537167534707,29.133739643069354,29.585138405302033
5599.0,River Gadadhar At Golkganj Bridge,Assam,,"River Gadadhar At Golkganj Bridge, Assam, India",26.3100825,89.8294313,26.55,91.0,1.55,Clouds,3,17.0,32.0,5.3,5.6,6.8,7.4,120.0,140.0,2.0,2.3,0.6,1.0,360.0,1100.0,1100.0,2000.0,5.957692307692308,290.0,29.764930979601292,35.49008558224074,32.62750828092101
5600.0,River Namdang Near Bridge At Hati Patty Geleky,Assam,,"River Namdang Near Bridge At Hati Patty Geleky, Assam, India",26.95013096262448,94.54600366876429,26.08,91.0,2.13,Clouds,3,18.0,31.0,5.0,6.6,6.5,7.0,132.0,208.0,1.7,2.5,0.6,1.1,300.0,360.0,720.0,910.0,5.957692307692308,140.0,25.999181187175374,33.05169722591566,29.525439206545517
5601.0,River Namdang At Kalugaon,Assam,,"River Namdang At Kalugaon, Assam, India",26.95013096262448,94.54600366876429,26.08,91.0,2.13,Clouds,3,18.0,30.0,5.1,7.2,6.5,7.2,118.0,188.0,2.1,2.6,0.7,1.0,300.0,720.0,730.0,1400.0,5.957692307692308,260.0,29.138856169493142,34.21452977723071,31.676692973361924
5602.0,"River Kapili At Kheroni Ghat Near Bridge, West Karbi Anglong , Kheroni",Assam,,"River Kapili At Kheroni Ghat Near Bridge, West Karbi Anglong , Kheroni, Assam, India",25.8532698,92.8826534,25.14,96.0,2.23,Clouds,3,22.0,29.0,5.3,8.0,6.8,7.6,118.0,142.0,2.2,2.5,0.6,0.9,720.0,930.0,1400.0,2000.0,5.957692307692308,460.0,31.517531703836465,34.540956447183284,33.02924407550987
5603.0,"River Daloo At Daloo, Cachar",Assam,,"River Daloo At Daloo, Cachar, Assam, India",24.92214,92.740791,24.78,96.0,1.1,Clouds,3,22.0,28.0,5.0,5.6,7.2,7.4,128.0,142.0,2.1,2.7,0.6,1.0,300.0,930.0,620.0,2000.0,5.957692307692308,290.0,33.35349127672739,38.729963805445294,36.041727541086345
5604.0,"River Ego (Simen) Near Simenchapori Bridge,Dhemaji",Assam,,"River Ego (Simen) Near Simenchapori Bridge,Dhemaji, Assam, India",27.7083775,94.861239,26.95,97.0,0.93,Clouds,3,22.0,24.0,5.8,8.6,7.0,8.0,148.0,198.0,2.0,2.3,0.6,0.8,300.0,910.0,620.0,2000.0,5.957692307692308,290.0,30.13585106019229,34.283402223628634,32.20962664191046
5605.0,River Disang At Nangalmara Ghat,Assam,,"River Disang At Nangalmara Ghat, Assam, India",27.08399123711797,94.94710556010504,25.84,93.0,1.35,Clouds,3,17.0,29.0,5.5,7.4,7.0,7.5,126.0,176.0,1.8,2.5,0.7,1.1,360.0,910.0,730.0,2800.0,5.957692307692308,350.0,28.975177472884187,34.88946177400414,31.932319623444165
5606.0,River Dikhow At Simaluguri,Assam,,"River Dikhow At Simaluguri, Assam, India",26.9130228,94.737131,26.05,92.0,1.27,Rain,3,20.0,29.0,6.5,7.9,7.0,7.8,120.0,156.0,1.6,2.7,0.6,1.0,720.0,1100.0,1400.0,2800.0,5.957692307692308,420.0,25.892709520795798,37.55791343800529,31.725311479400546
5607.0,River Tihu At D/S Of Industrial Areaa A Near Helochapara Shiva Temple,Assam,,"River Tihu At D/S Of Industrial Areaa A Near Helochapara Shiva Temple, Assam, India",30.8960287,75.8737288,26.45,93.0,1.65,Clouds,2,21.0,32.0,5.1,7.5,7.0,7.8,116.0,198.0,2.0,2.4,0.7,1.0,360.0,1500.0,910.0,3500.0,5.957692307692308,490.0,31.237735753299845,35.827686200027664,33.53271097666375
5608.0,River Kulsi At Kukurmara,Assam,,"River Kulsi At Kukurmara, Assam, India",26.0728879,91.4168974,28.03,94.0,0.0,Mist,3,19.0,33.0,5.3,9.2,6.8,7.4,90.0,118.0,2.0,2.5,0.6,0.9,360.0,940.0,1400.0,2000.0,5.957692307692308,290.0,29.76581933861446,31.53191608781401,30.648867713214237
5609.0,River Tunia At New Bongaigaon Railway Station,Assam,,"River Tunia At New Bongaigaon Railway Station, Assam, India",26.5110388,90.5193288,26.65,90.0,0.82,Clouds,3,22.0,35.0,5.0,5.8,7.0,7.4,132.0,156.0,2.0,2.6,0.6,1.2,300.0,1500.0,1100.0,2800.0,5.957692307692308,490.0,31.37110439734486,37.77741993962773,34.57426216848629
5611.0,River Mornoi At Mornoi Ghat,Assam,,"River Mornoi At Mornoi Ghat, Assam, India",26.1015487,90.7414002,26.78,88.0,2.64,Clouds,3,20.0,35.0,5.2,5.6,7.0,7.4,90.0,118.0,2.0,2.6,0.6,1.2,300.0,1100.0,610.0,2000.0,5.957692307692308,290.0,31.061195420273812,37.965061104519926,34.51312826239687
5613.0,River Doomdooma At D/S Of Doomdooma Town At Hansara,Assam,,"River Doomdooma At D/S Of Doomdooma Town At Hansara, Assam, India",27.5550417,95.5406714,25.06,97.0,1.54,Clouds,3,21.0,25.0,5.1,7.2,6.8,8.1,122.0,136.0,2.0,2.5,0.6,0.9,300.0,1500.0,720.0,3500.0,5.957692307692308,490.0,30.05449653527082,38.851152447438764,34.45282449135479
5614.0,River Bega At D/S Of Mangaldoi Town,Assam,,"River Bega At D/S Of Mangaldoi Town, Assam, India",26.44632,92.0322172,26.93,90.0,2.85,Clouds,3,18.0,32.0,5.0,5.8,7.0,7.5,92.0,122.0,2.4,3.4,0.6,0.9,730.0,1900.0,1500.0,3500.0,5.957692307692308,490.0,34.78983890186697,45.048037191082344,39.91893804647466
5615.0,"River Ghogra Near Iti, Srikona Main Block",Assam,,"River Ghogra Near Iti, Srikona Main Block, Assam, India",24.8351641,92.7157866,24.84,96.0,0.97,Clouds,3,19.0,24.0,5.5,6.3,7.0,7.2,103.0,134.0,2.0,2.5,0.6,0.9,360.0,2000.0,910.0,3500.0,5.957692307692308,490.0,30.617163973525997,35.161631987117836,32.88939798032192
5616.0,River Tunia At Nh Near Bgr,Assam,,"River Tunia At Nh Near Bgr, Assam, India",26.2006043,92.9375739,23.95,98.0,1.65,Clouds,3,22.0,35.0,4.3,5.6,7.0,7.5,126.0,150.0,2.1,2.7,0.7,1.0,730.0,1500.0,1500.0,3500.0,5.957692307692308,490.0,33.40543374220213,39.48382061900409,36.444627180603106
2275.0,"River Chapora Near Alorna Fort , Pernem",Goa,,"River Chapora Near Alorna Fort , Pernem, Goa, India",15.69676605021668,73.93138866540247,25.61,89.0,0.51,Clouds,6,26.0,32.0,6.3,8.7,6.8,7.6,52.0,1912.0,1.0,1.6,0.32,0.5,170.0,3300.0,220.0,7900.0,5.957692307692308,350.0,19.927989781828405,26.7630131907658,23.345501486297103
1543.0,River Kalna At Chandel,Goa,,"River Kalna At Chandel, Goa, India",15.7364742,73.8971826,24.71,89.0,0.67,Clouds,6,25.0,32.0,5.8,7.9,6.7,7.5,48.0,120.0,1.0,1.8,0.32,0.53,350.0,2300.0,540.0,3500.0,5.957692307692308,350.0,20.172757076281673,28.75327543408843,24.463016255185053
2270.0,"River Khandepar At Codli Near Bridge , U/S Opa Waterworks, Sanguem",Goa,,"River Khandepar At Codli Near Bridge , U/S Opa Waterworks, Sanguem, Goa, India",15.4106115,74.0542698,25.9,90.0,0.26,Clouds,6,28.0,34.0,6.7,7.6,6.6,7.7,45.0,120.0,1.0,1.8,0.32,1.02,230.0,2400.0,330.0,5400.0,49.0,540.0,18.167913100381554,30.4303676851506,24.299140392766077
1546.0,"River Khandepar At Opa - Ponda, Goa",Goa,,"River Khandepar At Opa - Ponda, Goa, Goa, India",15.4100219,74.0447003,25.63,90.0,0.26,Clouds,6,28.0,34.0,6.0,7.5,6.7,7.7,51.0,115.0,1.0,1.9,0.32,0.72,130.0,2300.0,220.0,4600.0,49.0,91.9023746701847,19.798205175019202,31.36420300261476,25.581204088816982
2272.0,"River Kushawati Near Bund At Kevona, Rivon, Sanguem",Goa,,"River Kushawati Near Bund At Kevona, Rivon, Sanguem, Goa, India",15.1383407,74.1334937,25.24,90.0,0.58,Clouds,6,27.0,30.0,5.5,8.0,6.6,8.1,56.0,208.0,1.0,2.1,0.32,0.4,120.0,1700.0,350.0,2200.0,5.957692307692308,580.0,19.986147104596906,34.36419730387018,27.17517220423354
1545.0,River Madei At Dabos,Goa,,"River Madei At Dabos, Goa, India",15.55954281170054,74.24727456269213,24.42,95.0,0.86,Clouds,6,25.0,30.0,6.0,8.3,6.6,7.7,50.0,145.0,1.0,2.0,0.32,0.36,95.31980715146645,2100.0,1100.0,2500.0,5.957692307692308,390.0,19.20991473483474,30.874322360131842,25.04211854748329
3185.0,River Mandovi At Amona Bridge,Goa,,"River Mandovi At Amona Bridge, Goa, India",15.5280787,73.9700896,25.99,88.0,0.6,Clouds,6,27.0,30.0,5.2,7.3,6.8,7.9,232.0,662.4912944738834,1.0,1.9,0.32,0.88,170.0,3300.0,230.0,4000.0,23.0,540.0,21.62453834255132,33.134106835762395,27.379322589156857
3186.0,River Mandovi At Iffi Jetty,Goa,,"River Mandovi At Iffi Jetty, Goa, India",15.50634873862439,73.91241629151692,25.99,94.0,2.06,Clouds,6,26.0,30.0,4.4,8.4,7.3,8.3,257.53576807228916,662.4912944738834,1.0,1.9,0.32,0.46,79.0,1300.0,110.0,3500.0,11.0,140.0,25.73420210156797,33.15102081719138,29.442611459379677
1400.0,River Mandovi At Panaji,Goa,,"River Mandovi At Panaji, Goa, India",15.5009538,73.8293928,25.94,94.0,2.06,Clouds,6,27.0,32.0,4.8,7.1,7.0,8.2,257.53576807228916,662.4912944738834,1.0,1.9,0.32,0.84,78.0,2300.0,130.0,4900.0,23.0,430.0,23.375168806491498,34.889528331039855,29.13234856876568
1476.0,River Mandovi At Tonca,Goa,,"River Mandovi At Tonca, Goa, India",15.4742434,73.8088221,25.97,94.0,2.06,Clouds,6,27.0,30.0,5.4,7.2,6.8,7.8,178.0,662.4912944738834,1.0,1.9,0.32,0.6,110.0,2200.0,110.0,3500.0,17.0,170.0,21.29795782799984,32.37026055305349,26.834109190526668
5102.0,River Mandovi Downstream At M/S Vedanta Pvt. Ltd.,Goa,,"River Mandovi Downstream At M/S Vedanta Pvt. Ltd., Goa, India",15.50634873862439,73.91241629151692,25.99,94.0,2.06,Clouds,6,26.0,34.0,4.7,7.4,6.8,7.9,186.0,662.4912944738834,1.0,2.1,0.32,1.02,45.0,4900.0,78.0,9200.0,8.0,91.9023746701847,22.358218258476562,35.11929493841808,28.73875659844732
3187.0,River Mandovi Near Hotel Marriot,Goa,,"River Mandovi Near Hotel Marriot, Goa, India",15.50634873862439,73.91241629151692,25.99,94.0,2.06,Clouds,6,26.0,30.0,4.2,6.9,6.7,8.3,257.53576807228916,662.4912944738834,1.0,1.9,0.32,0.56,49.0,3300.0,130.0,6300.0,20.0,330.0,22.550074890105623,36.068642238621706,29.309358564363663
5101.0,River Mandovi Upstream At M/S Vedanta Pvt. Ltd.,Goa,,"River Mandovi Upstream At M/S Vedanta Pvt. Ltd., Goa, India",15.50634873862439,73.91241629151692,25.99,94.0,2.06,Clouds,6,26.0,34.0,4.8,7.4,6.4,7.9,54.0,662.4912944738834,1.0,2.0,0.32,0.39,130.0,636.0863579474343,170.0,1565.5568332596197,5.957692307692308,91.9023746701847,19.906924641307043,32.98847297353989,26.447698807423468
10012.0,River Mandovi Upstream At Ribandar-Chodan Ferry,Goa,,"River Mandovi Upstream At Ribandar-Chodan Ferry, Goa, India",15.5055833,73.86418909999999,25.95,94.0,2.06,Clouds,6,27.0,32.0,5.6,7.3,6.9,8.1,257.53576807228916,662.4912944738834,1.0,1.9,0.32,0.48,70.0,1300.0,94.0,2300.0,33.0,350.0,21.558234477318678,33.683463877593546,27.620849177456112
2274.0,River Mapusa On Culvert On Highway Mapusa-Panaji,Goa,,"River Mapusa On Culvert On Highway Mapusa-Panaji, Goa, India",15.5901641,73.809958,25.92,86.0,3.15,Clouds,6,27.0,32.0,1.8,7.2,6.6,7.3,59.0,662.4912944738834,1.0,4.8,0.32,0.49,95.31980715146645,4900.0,2200.0,7900.0,5.957692307692308,91.9023746701847,25.690789855556726,54.12974213503358,39.910265995295156
3183.0,"River Sal At Khareband, Margao",Goa,,"River Sal At Khareband, Margao, Goa, India",15.2712944,73.9477234,25.96,94.0,2.06,Clouds,6,28.0,30.0,1.0,6.0,6.5,7.7,57.0,446.0,1.5,3.3000373692077725,0.32,7.41,95.31980715146645,636.0863579474343,395.1527835914609,1565.5568332596197,5.957692307692308,91.9023746701847,30.451423713761663,44.936580070411736,37.6940018920867
3184.0,"River Sal At Orlim Bridge, Orlim",Goa,,"River Sal At Orlim Bridge, Orlim, Goa, India",15.2199979,73.9576532,25.95,88.0,1.77,Clouds,6,28.0,31.0,2.7,6.5,6.1,7.9,109.0,662.4912944738834,1.0,5.5,0.32,0.86,680.0,3300.0,1100.0,5400.0,5.957692307692308,330.0,21.569472857524715,63.98332041976308,42.7763966386439
3176.0,River Sal At Rumder,Goa,,"River Sal At Rumder, Goa, India",15.1819391,73.9631674,25.98,88.0,1.9,Clouds,6,27.0,31.0,1.3,6.1,6.4,7.5,92.0,276.0,1.0,8.0,0.32,1.34,130.0,636.0863579474343,230.0,1565.5568332596197,5.957692307692308,490.0,25.30511715005999,82.05895128315032,53.68203421660515
2273.0,"River Sal Near Hotel Leela Mobor, Cavelossim",Goa,,"River Sal Near Hotel Leela Mobor, Cavelossim, Goa, India",15.1819391,73.9631674,25.98,88.0,1.9,Clouds,6,28.0,32.0,4.5,7.8,7.2,8.4,608.0,662.4912944738834,1.0,1.9,0.32,0.78,78.0,3300.0,230.0,4700.0,5.957692307692308,91.9023746701847,24.999405524169454,35.26451292830098,30.131959226235217
2271.0,"River Sal Pazorkhoni, Cuncolim(Near Culvert Margao- Canacona National Highway)",Goa,,"River Sal Pazorkhoni, Cuncolim(Near Culvert Margao- Canacona National Highway), Goa, India",15.2021754,73.9976946,25.92,88.0,1.44,Clouds,6,26.0,30.0,4.6,7.0,6.3,7.5,38.0,110.0,1.0,1.9,0.32,0.62,95.31980715146645,4900.0,1300.0,9400.0,5.957692307692308,91.9023746701847,19.627832490983096,31.754563457886388,25.691197974434743
3190.0,River Sinquerim (Candolim Side Near Bridge),Goa,,"River Sinquerim (Candolim Side Near Bridge), Goa, India",15.5012802,73.77146429999999,25.92,94.0,2.06,Clouds,6,26.0,31.0,4.4,7.3,7.0,8.0,257.53576807228916,662.4912944738834,1.0,1.9,0.32,0.32,700.0,2300.0,940.0,5400.0,5.957692307692308,490.0,24.178669792589353,33.40228717500759,28.79047848379847
3191.0,River Sinquerim Near Nerul Temple,Goa,,"River Sinquerim Near Nerul Temple, Goa, India",15.5012802,73.77146429999999,25.92,94.0,2.06,Clouds,6,26.0,31.0,4.7,7.8,7.0,7.9,257.53576807228916,662.4912944738834,1.0,1.9,0.32,0.37,330.0,4900.0,490.0,13000.0,5.957692307692308,540.0,23.60508598975473,32.844759531257836,28.22492276050628
1547.0,"River Talpona At Canacona, Goa",Goa,,"River Talpona At Canacona, Goa, Goa, India",14.99825304806322,74.08067585485401,25.66,89.0,1.75,Clouds,6,28.0,31.0,5.2,7.6,6.6,8.4,32.0,100.0,1.0,1.9,0.32,0.34,78.0,1400.0,230.0,2200.0,49.0,210.0,20.436041720831618,34.98685503920629,27.711448380018954
3188.0,River Tiracol At Tiracol,Goa,,"River Tiracol At Tiracol, Goa, India",15.724725,73.6881956,26.19,86.0,3.34,Clouds,6,26.0,31.0,4.1,8.0,7.1,8.1,257.53576807228916,662.4912944738834,1.0,1.9,0.32,0.81,94.0,636.0863579474343,170.0,1565.5568332596197,40.0,91.9023746701847,25.040254942478164,32.41715232496684,28.728703633722503
1544.0,River Valvanti At Sanquelim,Goa,,"River Valvanti At Sanquelim, Goa, India",15.557504,74.0158727,25.17,89.0,0.07,Clouds,6,24.0,30.0,6.0,8.1,6.5,7.6,37.0,77.0,1.0,1.4,0.32,0.82,95.31980715146645,3100.0,1500.0,4600.0,5.957692307692308,330.0,18.63047240752767,25.985980550722378,22.308226479125025
3181.0,River Zuari At Borim Bridge,Goa,,"River Zuari At Borim Bridge, Goa, India",15.24238397256011,74.14161250065683,25.05,91.0,0.24,Clouds,6,26.0,31.0,4.3,7.1,6.4,7.4,295.0,662.4912944738834,1.0,2.2,0.32,1.44,450.0,3300.0,780.0,5400.0,5.957692307692308,490.0,20.77463424274545,33.0317128684319,26.903173555588676
1399.0,River Zuari At Cortalim,Goa,,"River Zuari At Cortalim, Goa, India",15.24238397256011,74.14161250065683,25.05,91.0,0.24,Clouds,6,27.0,31.0,4.6,7.1,6.7,7.9,257.53576807228916,662.4912944738834,1.0,1.8,0.32,1.44,200.0,4900.0,330.0,7900.0,45.0,91.9023746701847,21.978465218411376,33.12582279656966,27.55214400749052
3182.0,River Zuari At Marcaim Jetty,Goa,,"River Zuari At Marcaim Jetty, Goa, India",15.24238397256011,74.14161250065683,25.05,91.0,0.24,Clouds,6,27.0,34.0,4.4,7.0,7.0,8.0,257.53576807228916,662.4912944738834,1.0,1.9,0.32,0.75,230.0,3300.0,490.0,7900.0,17.0,540.0,24.038161008673487,34.184216757018646,29.111188882846065
1475.0,River Zuari At Panchawadi,Goa,,"River Zuari At Panchawadi, Goa, India",15.24238397256011,74.14161250065683,25.05,91.0,0.24,Clouds,6,27.0,32.0,4.3,7.0,6.5,7.3,81.0,662.4912944738834,1.0,2.1,0.32,1.74,230.0,3500.0,330.0,9200.0,14.0,91.9023746701847,21.288782182584768,31.86420429289655,26.576493237740657
1148.0,River Ambika At Bilimora,Gujarat,,"River Ambika At Bilimora, Gujarat, India",20.7577758,72.9488697,26.4,88.0,4.58,Clouds,5,28.0,31.0,6.0,7.3,7.4,8.4,248.0,662.4912944738834,1.4,2.6,0.34,0.39,6.0,17.0,22.0,48.0,5.957692307692308,91.9023746701847,27.11623738776431,40.7933464167907,33.954791902277506
1434.0,River Amlakhadi After Confl. Of W. Water From Anklesh,Gujarat,,"River Amlakhadi After Confl. Of W. Water From Anklesh, Gujarat, India",21.6264236,73.0151984,27.34,81.0,5.3,Clouds,5,26.0,34.0,0.3,4.3,7.3,8.1,720.0,2047.0,4.0,3.3000373692077725,0.3,1.85,240.0,1600.0,540.0,1600.0,5.957692307692308,94.0,56.78244758714079,49.963253607293986,53.372850597217386
1980.0,"River Amlakhadi At Pungam Ankleshwar Distt Bharuchat Village Pungam, Ta: Ankleshwar, Dist Bharuch",Gujarat,,"River Amlakhadi At Pungam Ankleshwar Distt Bharuchat Village Pungam, Ta: Ankleshwar, Dist Bharuch, Gujarat, India",21.6167426,72.9416274,27.61,80.0,5.67,Clouds,5,24.0,35.0,0.3,5.7,7.3,8.2,700.0,2045.0,2.6,3.3000373692077725,0.55,2.7,70.0,1600.0,220.0,1600.0,5.957692307692308,91.9023746701847,45.2245341706402,48.41574876497394,46.82014146780707
1860.0,River Baleshwar Khadi At N.H. No. 8,Gujarat,,"River Baleshwar Khadi At N.H. No. 8, Gujarat, India",22.6708317,71.5723953,29.03,70.0,4.21,Clouds,5,23.0,32.0,5.0,8.0,6.9,8.5,387.0,865.0,1.0,2.8,0.3,0.32,11.0,920.0,31.0,1600.0,2.0,94.0,22.46521967370064,42.20891232040621,32.33706599705343
1436.0,"River Bhadar D/S Jetpur Vill. After Conf. Of W.Water From Jetpur City,River Bhadar At Dublipat National Highway,(I.E. D/S Jetpur City),Jetpur , Dist:Raj(Id:31211)",Gujarat,,"River Bhadar D/S Jetpur Vill. After Conf. Of W.Water From Jetpur City,River Bhadar At Dublipat National Highway,(I.E. D/S Jetpur City),Jetpur , Dist:Raj(Id:31211), Gujarat, India",21.7546665,70.6179777,27.64,77.0,3.04,Clouds,5,27.0,35.0,0.3,6.5,7.2,8.4,430.0,662.4912944738834,2.1,3.3000373692077725,0.33,0.53,5.0,94.0,21.0,280.0,5.957692307692308,91.9023746701847,40.50325434228209,47.813974584501814,44.158614463391956
2072.0,"River Bhogavo D/S Of Surendranagar.At Wadhwan Bridge, Wadhwan, Tal. Wadhwan, Dist. Surendranagar",Gujarat,,"River Bhogavo D/S Of Surendranagar.At Wadhwan Bridge, Wadhwan, Tal. Wadhwan, Dist. Surendranagar, Gujarat, India",22.7209841,71.6344628,29.06,71.0,3.89,Clouds,5,25.0,28.0,1.5,6.4,7.1,8.0,257.53576807228916,2432.0,2.0,5.0,0.36,0.5,13.0,49.0,70.0,220.0,5.957692307692308,91.9023746701847,37.25293574590223,59.61421808815937,48.4335769170308
30039.0,"River Daman Ganga At D/S Of Gidc Weir, Near Nh-48, Vapi, Gujarat (Ut Of Daman,Diu,Dadar & Nagar Haveli And Gujarat)",Gujarat,,"River Daman Ganga At D/S Of Gidc Weir, Near Nh-48, Vapi, Gujarat (Ut Of Daman,Diu,Dadar & Nagar Haveli And Gujarat), Gujarat, India",20.3973736,72.8327991,26.96,85.0,4.24,Clouds,5,22.5,29.0,6.7,7.9,7.6,8.2,180.0,327.0,1.2,2.4,0.32,1.03,95.31980715146645,636.0863579474343,395.1527835914609,1565.5568332596197,5.957692307692308,91.9023746701847,25.57960191974095,37.27282409190238,31.426213005821666
1246.0,"River Damanganga At Kachigaon D\S (Daman),River Damanganga At Kachigaon Bridge",Gujarat,,"River Damanganga At Kachigaon D\S (Daman),River Damanganga At Kachigaon Bridge, Gujarat, India",20.37363049904731,72.87074420367418,26.76,86.0,3.89,Clouds,5,27.0,29.0,4.0,7.1,7.4,8.1,252.0,662.4912944738834,1.0,2.2,0.32,0.64,4.0,540.0,350.0,1600.0,5.957692307692308,91.9023746701847,26.91024660080639,36.23831128349275,31.57427894214957
1150.0,"River Damanganga At Kachigaon U\S At Gidc Wier,River Damanganga At Gidc Wier,",Gujarat,,"River Damanganga At Kachigaon U\S At Gidc Wier,River Damanganga At Gidc Wier,, Gujarat, India",22.6708317,71.5723953,29.03,70.0,4.21,Clouds,5,27.0,28.0,6.0,7.3,7.8,8.2,202.0,404.0,1.0,1.0,0.32,0.34,2.0,21.0,63.0,920.0,5.957692307692308,91.9023746701847,26.146731815144772,26.473157278683875,26.309944546914323
1865.0,River Dhadar At Kothada,Gujarat,,"River Dhadar At Kothada, Gujarat, India",20.9907938,73.1261091,25.65,89.0,3.97,Clouds,5,27.0,30.0,0.7,4.3,7.6,8.9,560.0,1632.0,1.0,9.0,0.91,2.46,500.0,1600.0,900.0,1600.0,4.0,91.9023746701847,33.33113028469854,101.51587562715761,67.42350295592807
1862.0,River Kaveri On Bridge At Billimora-Valsad Road,Gujarat,,"River Kaveri On Bridge At Billimora-Valsad Road, Gujarat, India",20.7702311,72.9823779,26.14,89.0,4.16,Clouds,5,28.0,31.0,7.0,7.2,7.5,8.5,300.0,662.4912944738834,1.0,2.6,0.33,0.43,4.0,17.0,17.0,48.0,5.957692307692308,91.9023746701847,22.863383047890746,41.52966453748666,32.1965237926887
1149.0,River Kolak At Patalia Bdg.,Gujarat,,"River Kolak At Patalia Bdg., Gujarat, India",20.466838,72.86484039999999,26.92,86.0,4.53,Clouds,5,27.0,29.0,4.6,7.2,7.5,8.2,301.0,2566.0,1.0,2.8,0.32,0.52,4.0,920.0,120.0,1720.0,5.957692307692308,91.9023746701847,26.56481835950563,41.70853080558528,34.13667458254545
1435.0,"River Kolak At Railway Bridge No. 313 Vapi, Valsad,",Gujarat,,"River Kolak At Railway Bridge No. 313 Vapi, Valsad,, Gujarat, India",20.3893155,72.9106202,26.46,86.0,3.53,Clouds,5,27.0,29.0,4.9,7.3,7.1,8.1,257.53576807228916,662.4912944738834,1.0,1.6,0.32,0.47,2.0,13.0,25.0,920.0,5.957692307692308,91.9023746701847,23.778750596486518,30.830241904180664,27.304496250333592
1438.0,"River Mindhola At State Highway Bridge Sachin,",Gujarat,,"River Mindhola At State Highway Bridge Sachin,, Gujarat, India",21.0847018,72.88216059999999,26.94,83.0,5.14,Clouds,5,23.0,32.0,5.0,6.9,7.3,8.4,261.0,1727.0,1.9,3.0,0.3,0.66,2.0,1600.0,2.0,1600.0,2.0,220.0,32.18796772231071,45.18370483771804,38.68583628001437
1861.0,River Purna On Bridge At Surat-Navsari Highway,Gujarat,,"River Purna On Bridge At Surat-Navsari Highway, Gujarat, India",21.1242391,72.8562319,26.95,83.0,5.14,Clouds,5,28.0,30.0,5.5,8.0,6.5,8.4,290.0,1625.0,1.0,2.9,0.32,0.34,70.0,1600.0,280.0,1600.0,5.957692307692308,91.9023746701847,19.390507031283093,42.65293269223533,31.021719861759212
2082.0,"River Triveni Sangam, Nr. Somnath Temple, Veraval, Dist. Junagadh.Near Triveni Sangam Ghat, At: Somnath, Tal: Veraval, Dist: Gir Somnath.",Gujarat,,"River Triveni Sangam, Nr. Somnath Temple, Veraval, Dist. Junagadh.Near Triveni Sangam Ghat, At: Somnath, Tal: Veraval, Dist: Gir Somnath., Gujarat, India",20.8879899,70.40125689999999,28.24,82.0,4.83,Clouds,5,24.0,32.0,6.2,6.7,7.0,7.6,630.0,662.4912944738834,1.5,2.2,0.3,0.33,2.0,5.0,2.0,24.0,2.0,2.0,25.305120792955577,33.77766938980639,29.541395091380984
3204.0,"River Vishwamitri Downstream Of At Khalipur Village, Before Meeting Jambuva Riverkhalipur Bridge-Vadodara",Gujarat,,"River Vishwamitri Downstream Of At Khalipur Village, Before Meeting Jambuva Riverkhalipur Bridge-Vadodara, Gujarat, India",22.2170367,73.186587,28.07,83.0,5.14,Haze,5,26.0,29.0,0.3,7.567400135409613,7.3,8.5,257.53576807228916,1612.0,5.0,11.0,0.82,1.1,95.31980715146645,1600.0,1600.0,1600.0,21.0,91.9023746701847,64.98730037447152,110.55546397863534,87.77138217655343
3205.0,"River Vishwamitri Upstream At Asod Bridge At N.H. 8 , Near Glden Chokdi, Asod Vemali Roadvillage: Asoj",Gujarat,,"River Vishwamitri Upstream At Asod Bridge At N.H. 8 , Near Glden Chokdi, Asod Vemali Roadvillage: Asoj, Gujarat, India",22.362977,73.194892,27.99,83.0,5.14,Haze,5,26.0,29.0,7.4,8.2,8.0,8.3,542.0,1150.0,1.0,1.0,0.36,2.08,2.0,30.0,11.0,350.0,2.0,2.0,25.150087829481524,25.73031121381755,25.44019952164954
4417.0,"River Bhukhi Khadi, U/S Of Gidc Vilayat, Ta; Vagra, Dist Bharuch.River Bhukhi Khadi, U/S Of Gidc Vilayat, Ta; Vagra, Dist Bharuch.",Gujarat,,"River Bhukhi Khadi, U/S Of Gidc Vilayat, Ta; Vagra, Dist Bharuch.River Bhukhi Khadi, U/S Of Gidc Vilayat, Ta; Vagra, Dist Bharuch., Gujarat, India",21.7051345,72.9958857,27.39,80.0,5.31,Clouds,5,28.0,32.0,6.1,8.0,7.4,8.4,287.0,2040.0,1.0,2.1,0.3,0.3,23.0,110.0,79.0,240.0,5.957692307692308,91.9023746701847,23.675530328396075,35.625787700904944,29.650659014650508
4418.0,"River Bhukhi Khadi, D/S Of Gidc Vilayat, Ta; Vagra, Dist Bharuchriver Bhukhi Khadi, D/S Of Gidc Vilayat, Ta; Vagra, Dist Bharuch",Gujarat,,"River Bhukhi Khadi, D/S Of Gidc Vilayat, Ta; Vagra, Dist Bharuchriver Bhukhi Khadi, D/S Of Gidc Vilayat, Ta; Vagra, Dist Bharuch, Gujarat, India",21.7810158,72.8873791,28.21,75.0,5.58,Clouds,5,28.0,32.0,6.1,7.6,7.3,8.4,300.0,1434.0,1.0,2.2,0.3,0.3,21.0,170.0,120.0,490.0,5.957692307692308,91.9023746701847,23.0944326921278,37.083765803532664,30.089099247830234
4419.0,"River Bhukhi Khadi D/S Of Gidc Saykha, Vill: Kothiya Ta: Vagra, Dist Bharuchriver Bhukhi Khadi D/S Of Gidc Saykha, Vill: Kothiya Ta: Vagra, Dist Bharuch",Gujarat,,"River Bhukhi Khadi D/S Of Gidc Saykha, Vill: Kothiya Ta: Vagra, Dist Bharuchriver Bhukhi Khadi D/S Of Gidc Saykha, Vill: Kothiya Ta: Vagra, Dist Bharuch, Gujarat, India",21.781495,72.82200639999999,28.59,74.0,5.69,Clouds,5,28.0,31.0,6.6,7.5,7.5,8.4,310.0,1323.0,1.0,2.1,0.3,0.3,21.0,170.0,94.0,540.0,5.957692307692308,91.9023746701847,23.484464336288728,36.41558821688863,29.95002627658868
1024.0,"River Ghaggar At 100M D/S Conf. With R. Saraswati (Patiala), Punjab",Punjab,,"River Ghaggar At 100M D/S Conf. With R. Saraswati (Patiala), Punjab, Punjab, India",30.32704966592564,76.41508904962313,28.01,83.0,0.45,Clouds,2,10.0,37.0,2.5,3.8,6.8,7.9,708.0,971.0,1.7601102307957286,3.3000373692077725,1.3,3.4,95.31980715146645,636.0863579474343,395.1527835914609,1565.5568332596197,5.957692307692308,91.9023746701847,32.05524480327488,49.344274063741416,40.69975943350815
4160.0,"River Ghaggar D/S After Mixing With Sagarpara Drain At Vill Rasouli, Patiala",Punjab,,"River Ghaggar D/S After Mixing With Sagarpara Drain At Vill Rasouli, Patiala, Punjab, India",24.2454254,88.7012651,27.66,85.0,5.13,Rain,3,10.0,36.0,2.1,7.567400135409613,7.4,8.1,765.0,1010.0,1.7601102307957286,3.3000373692077725,1.3,3.6,95.31980715146645,636.0863579474343,395.1527835914609,1565.5568332596197,5.957692307692308,91.9023746701847,36.1559216205884,44.70241589320597,40.429168756897184
4159.0,"River Ghaggar U/S Before Mixing With Sagarpara Drain At Vill Rasouli, Dist Patiala",Punjab,,"River Ghaggar U/S Before Mixing With Sagarpara Drain At Vill Rasouli, Dist Patiala, Punjab, India",30.3098101,76.317414,27.93,84.0,0.42,Clouds,2,10.0,36.0,2.5,4.0,7.0,8.1,606.0,890.0,1.7601102307957286,3.3000373692077725,1.2,3.0,95.31980715146645,4800.0,395.1527835914609,1565.5568332596197,5.957692307692308,91.9023746701847,33.21284261684938,51.41546322939711,42.314152923123245
1698.0,"River Ghaggar At D/S Chhatbir, Punjab",Punjab,,"River Ghaggar At D/S Chhatbir, Punjab, Punjab, India",30.32704966592564,76.41508904962313,28.01,83.0,0.45,Clouds,2,12.0,34.0,1.5,3.7,7.1,7.9,660.0,847.0,1.7601102307957286,3.3000373692077725,1.3,2.3,95.31980715146645,4700.0,395.1527835914609,1565.5568332596197,5.957692307692308,91.9023746701847,35.33941517466314,50.66169404747664,43.00055461106989
1699.0,"River Ghaggar At U/S Dhakansu Nallah, Punjab",Punjab,,"River Ghaggar At U/S Dhakansu Nallah, Punjab, Punjab, India",30.32704966592564,76.41508904962313,28.01,83.0,0.45,Clouds,2,11.0,36.0,2.9,4.7,6.6,8.0,551.0,710.0,1.7601102307957286,3.3000373692077725,0.9,2.3,95.31980715146645,3900.0,395.1527835914609,1565.5568332596197,5.957692307692308,91.9023746701847,30.262452016294162,49.4631351632091,39.86279358975163
1700.0,"River Ghaggar At D/S Dhakansu Nallah, Punjab",Punjab,,"River Ghaggar At D/S Dhakansu Nallah, Punjab, Punjab, India",30.32704966592564,76.41508904962313,28.01,83.0,0.45,Clouds,2,11.0,36.0,2.0,3.8,7.1,8.1,658.0,898.0,1.7601102307957286,3.3000373692077725,1.2,2.9,95.31980715146645,4600.0,395.1527835914609,1565.5568332596197,5.957692307692308,91.9023746701847,34.564614399547864,51.661041487460786,43.11282794350433
1702.0,"River Ghaggar At U/S Jharmal Nadi, Punjab",Punjab,,"River Ghaggar At U/S Jharmal Nadi, Punjab, Punjab, India",30.32704966592564,76.41508904962313,28.01,83.0,0.45,Clouds,2,11.0,34.0,2.8,4.5,7.4,8.0,572.0,738.0,1.7601102307957286,3.3000373692077725,1.1,2.1,95.31980715146645,3800.0,395.1527835914609,1565.5568332596197,5.957692307692308,91.9023746701847,35.06900705638215,49.73466958997023,42.40183832317619
1701.0,"River Ghaggar At D/S Jharmal Nadi, Punjab",Punjab,,"River Ghaggar At D/S Jharmal Nadi, Punjab, Punjab, India",30.32704966592564,76.41508904962313,28.01,83.0,0.45,Clouds,2,11.0,34.0,2.1,4.1,7.3,8.0,631.0,805.0,1.7601102307957286,3.3000373692077725,1.1,2.4,95.31980715146645,4800.0,395.1527835914609,1565.5568332596197,5.957692307692308,91.9023746701847,35.56798321778091,50.658672637615815,43.113327927698364
1705.0,"River Ghaggar At U/S Sardulgarh, Punjab",Punjab,,"River Ghaggar At U/S Sardulgarh, Punjab, Punjab, India",29.6949451,75.2352171,29.64,78.0,1.65,Clouds,2,17.0,37.0,4.3,7.0,6.7,7.9,381.0,575.0,1.7601102307957286,3.3000373692077725,0.8,1.3,95.31980715146645,2700.0,395.1527835914609,1565.5568332596197,5.957692307692308,91.9023746701847,28.68021708909724,44.94333987501714,36.81177848205719
1704.0,"River Ghaggar At D/S Sardulgarh, Punjab",Punjab,,"River Ghaggar At D/S Sardulgarh, Punjab, Punjab, India",29.6949451,75.2352171,29.64,78.0,1.65,Clouds,2,18.0,37.0,4.0,6.0,7.1,7.9,483.0,667.0,1.7601102307957286,3.3000373692077725,0.9,1.7,95.31980715146645,3400.0,395.1527835914609,1565.5568332596197,5.957692307692308,91.9023746701847,31.469067097494825,46.70753679180279,39.088301944648805
1703.0,"River Ghaggar At Moonak, Punjab",Punjab,,"River Ghaggar At Moonak, Punjab, Punjab, India",30.32704966592564,76.41508904962313,28.01,83.0,0.45,Clouds,2,11.0,37.0,2.0,3.5,6.8,7.9,771.0,1098.0,1.7601102307957286,3.3000373692077725,1.3,3.9,95.31980715146645,636.0863579474343,395.1527835914609,1565.5568332596197,5.957692307692308,91.9023746701847,32.826389779982065,49.82524004180619,41.325814910894124
30015.0,River Ghaggar At Mubarakpur (Punjab),Punjab,,"River Ghaggar At Mubarakpur (Punjab), Punjab, India",30.32704966592564,76.41508904962313,28.01,83.0,0.45,Clouds,2,20.0,35.5,0.8,5.5,7.5,7.9,652.0,819.0,3.0,3.3000373692077725,0.32,1.22,95.31980715146645,636.0863579474343,395.1527835914609,1565.5568332596197,5.957692307692308,91.9023746701847,48.90446939167249,46.64268473764053,47.77357706465651
1023.0,"River Ghaggar At Mubarakpur Rest House (Patiala),",Punjab,,"River Ghaggar At Mubarakpur Rest House (Patiala),, Punjab, India",30.3397809,76.3868797,27.93,84.0,0.45,Clouds,2,11.0,35.0,4.2,6.6,7.2,8.2,441.0,571.0,1.7601102307957286,3.3000373692077725,0.0,1.3,95.31980715146645,2700.0,395.1527835914609,1565.5568332596197,5.957692307692308,91.9023746701847,31.708333727130405,47.30213627435676,39.50523500074358
1473.0,"River Ghaggar At Ratanheri, D/S Of Patiala Nadi (After Confl.), Punjab",Punjab,,"River Ghaggar At Ratanheri, D/S Of Patiala Nadi (After Confl.), Punjab, Punjab, India",30.3397809,76.3868797,27.93,84.0,0.45,Clouds,2,11.0,36.0,2.0,4.2,7.5,8.0,721.0,941.0,1.7601102307957286,3.3000373692077725,1.3,3.1,95.31980715146645,636.0863579474343,395.1527835914609,1565.5568332596197,5.957692307692308,91.9023746701847,36.89077742192113,49.29701749314267,43.093897457531895
30019.0,River Ghaggar At Sirdulgarh(Punjab),Punjab,,"River Ghaggar At Sirdulgarh(Punjab), Punjab, India",29.6949451,75.2352171,29.64,78.0,1.65,Clouds,2,18.5,36.5,3.5,6.5,7.7,8.6,616.0,946.0,3.0,8.0,0.4129202168861347,6.71,170.0,4900.0,490.0,7000.0,9.0,68.0,45.92733224065189,89.30396770252639,67.61564997158914
30016.0,"River Ghaggar At Tiwana Village ,(Punjab)",Punjab,,"River Ghaggar At Tiwana Village ,(Punjab), Punjab, India",30.282826,76.62683059999999,28.24,81.0,0.35,Clouds,2,19.0,35.5,0.3,7.567400135409613,7.6,8.1,506.0,1192.0,5.0,3.3000373692077725,0.32,3.5,95.31980715146645,636.0863579474343,395.1527835914609,1565.5568332596197,5.957692307692308,91.9023746701847,66.70733401079099,44.698760094797876,55.70304705279443
4162.0,"River Ghaggar Confluence Point Of Sukhana Choe With Ghaggar, Vill Mubarkpur",Punjab,,"River Ghaggar Confluence Point Of Sukhana Choe With Ghaggar, Vill Mubarkpur, Punjab, India",31.1600983,76.12257269999999,26.67,95.0,2.23,Clouds,2,10.0,36.0,0.3,7.567400135409613,6.9,7.8,257.53576807228916,662.4912944738834,1.7601102307957286,3.3000373692077725,0.4129202168861347,6.9,95.31980715146645,636.0863579474343,395.1527835914609,1565.5568332596197,5.957692307692308,91.9023746701847,35.99647965818821,43.08117682269918,39.53882824044369
1295.0,"River Ghaggar Near Bankarpur, Dera Bassi, Punjab",Punjab,,"River Ghaggar Near Bankarpur, Dera Bassi, Punjab, Punjab, India",30.5942278,76.8151508,26.83,86.0,2.85,Clouds,2,11.0,35.0,2.1,4.6,7.3,7.9,693.0,907.0,1.7601102307957286,3.3000373692077725,1.1,2.6,95.31980715146645,3900.0,395.1527835914609,1565.5568332596197,5.957692307692308,91.9023746701847,35.56798321778091,49.04770474778352,42.30784398278222
30018.0,River Ghaggar At Chandrapur Siphon (Haryana),Haryana,,"River Ghaggar At Chandrapur Siphon (Haryana), Haryana, India",29.0587757,76.085601,30.91,66.0,1.09,Rain,2,18.0,34.0,4.2,6.7,7.8,8.4,675.0,1057.0,3.0,7.0,0.61,4.18,330.0,2300.0,490.0,4900.0,14.0,230.0,45.482940066195766,78.74008832408956,62.11151419514266
1026.0,River Ghaggar Gh-2 At Chandarpur Syphen,Haryana,,"River Ghaggar Gh-2 At Chandarpur Syphen, Haryana, India",29.0587757,76.085601,30.91,66.0,1.09,Rain,2,20.42956204379562,29.024965940054496,5.6,6.1,7.5,8.6,678.0,832.0,1.7601102307957286,9.0,0.0,0.0,95.31980715146645,636.0863579474343,2500.0,11000.0,5.957692307692308,91.9023746701847,31.29724107697761,96.6503421106674,63.973791593822504
1885.0,River Ghaggar At D/S Of Surajpur,Haryana,,"River Ghaggar At D/S Of Surajpur, Haryana, India",30.7871058,76.8994781,25.3,86.0,2.39,Clouds,2,20.42956204379562,29.024965940054496,5.2,7.8,7.0,8.0,345.0,580.0,3.4,6.0,0.3,0.3,100.0,900.0,500.0,3900.0,2.0,100.0,42.50644334469427,65.93614201873619,54.22129268171523
1884.0,River Ghaggar At Kala Amb D/S Markanda,Haryana,,"River Ghaggar At Kala Amb D/S Markanda, Haryana, India",30.4992306,77.20702589999999,26.71,84.0,1.99,Clouds,2,20.42956204379562,29.024965940054496,0.3,6.1,6.7,7.9,364.0,1952.0,4.2,3.3000373692077725,0.3,3.16,400.0,4300.0,1500.0,1565.5568332596197,5.957692307692308,91.9023746701847,54.99401793104605,46.8731901571695,50.93360404410778
30014.0,"River Ghaggar At Parwanoo D/S,Amravati, Haryana",Haryana,,"River Ghaggar At Parwanoo D/S,Amravati, Haryana, Haryana, India",30.8405752,76.9583881,23.13,90.0,2.14,Clouds,2,18.0,32.0,6.7,7.5,7.8,8.4,368.0,551.0,1.0,3.3000373692077725,0.4129202168861347,3.9,95.31980715146645,636.0863579474343,395.1527835914609,1565.5568332596197,49.0,91.9023746701847,25.09914322389126,46.55921425810516,35.82917874099821
30020.0,River Ghaggar At Ottu Weir (Haryana),Haryana,,"River Ghaggar At Ottu Weir (Haryana), Haryana, India",29.4998547,74.88945319999999,31.4,69.0,1.62,Clouds,2,18.0,32.0,4.5,8.3,7.9,8.5,543.0,976.0,3.0,3.3000373692077725,0.55,6.66,68.0,1100.0,230.0,4900.0,14.0,330.0,45.520333142156595,46.154157034648,45.8372450884023
1887.0,River Ghaggar Before Ottu Weir (Before Mixing Of Satluj Canal Water),Haryana,,"River Ghaggar Before Ottu Weir (Before Mixing Of Satluj Canal Water), Haryana, India",29.8910886,76.2313456,28.91,80.0,0.97,Clouds,2,20.42956204379562,29.024965940054496,5.4,6.1,7.6,8.7,782.0,1150.0,1.7601102307957286,3.3000373692077725,0.0,0.0,95.31980715146645,636.0863579474343,395.1527835914609,1565.5568332596197,5.957692307692308,91.9023746701847,32.180093006998334,50.317724472943524,41.24890873997093
30017.0,River Ghaggar At Sirsa Dabwali Road (Haryana),Haryana,,"River Ghaggar At Sirsa Dabwali Road (Haryana), Haryana, India",29.751263,74.9062037,29.87,78.0,1.94,Clouds,2,19.0,36.5,4.3,6.3,7.5,8.8,604.0,810.0,3.0,10.0,0.4129202168861347,7.47,140.0,4900.0,630.0,1565.5568332596197,4.0,78.0,43.52377764334561,107.23646375428434,75.38012069881498
1025.0,"River Ghaggar Gh-1 At Road Brdg. Sirsa, Debwali Road",Haryana,,"River Ghaggar Gh-1 At Road Brdg. Sirsa, Debwali Road, Haryana, India",29.5610645,74.8741045,31.03,72.0,1.9,Clouds,2,20.42956204379562,29.024965940054496,5.7,6.0,7.6,8.9,849.0,1443.0,1.7601102307957286,3.3000373692077725,0.0,0.0,95.31980715146645,636.0863579474343,395.1527835914609,1565.5568332596197,5.957692307692308,91.9023746701847,31.717406020974014,51.63320708026755,41.67530655062078
30013.0,River Kaushalya At U/S Parwanoo,Himachal Pradesh,,"River Kaushalya At U/S Parwanoo, Himachal Pradesh, India",30.8405752,76.9583881,23.13,90.0,2.14,Clouds,2,20.0,28.0,6.0,8.0,8.3,8.5,302.0,420.0,1.0,3.3000373692077725,1.12,1.98,490.0,636.0863579474343,700.0,1565.5568332596197,5.957692307692308,91.9023746701847,29.225504914145734,46.29850475795387,37.762004836049805
3864.0,River Markanda After Confluence Of Rampur Jattan Moginand Nala,Himachal Pradesh,,"River Markanda After Confluence Of Rampur Jattan Moginand Nala, Himachal Pradesh, India",30.5109812,77.21608499999999,26.71,84.0,1.99,Clouds,2,20.42956204379562,29.024965940054496,7.3,8.8,6.8,8.3,352.0,643.0,1.2,2.8,0.65,1.47,70.0,220.0,280.0,920.0,2.0,2.0,20.01343895149981,39.64657104388313,29.830004997691468
3862.0,River Markanda After Confluence With Salani Khad At Moginand Kala Amb,Himachal Pradesh,,"River Markanda After Confluence With Salani Khad At Moginand Kala Amb, Himachal Pradesh, India",30.5201945,77.2376414,26.32,85.0,1.93,Clouds,2,20.42956204379562,29.024965940054496,7.2,8.8,7.3,8.1,311.0,645.0,1.2,2.8,0.63,0.92,33.0,240.0,140.0,920.0,2.0,2.0,23.058699821747577,38.47113293407714,30.764916377912357
30008.0,River Markanda At Kala Amb U/S (H.P),Himachal Pradesh,,"River Markanda At Kala Amb U/S (H.P), Himachal Pradesh, India",30.5034529,77.2169273,26.71,84.0,1.99,Clouds,2,18.0,31.0,7.0,10.0,8.1,8.4,438.0,523.0,1.0,5.0,0.54,1.47,400.0,636.0863579474343,395.1527835914609,1565.5568332596197,5.957692307692308,91.9023746701847,26.473204235012364,56.597775002056416,41.53548961853439
1871.0,"River Markanda At Shambuwala, Distt. Sirmour",Himachal Pradesh,,"River Markanda At Shambuwala, Distt. Sirmour, Himachal Pradesh, India",30.4297674,77.1751171,27.03,84.0,2.07,Clouds,2,20.42956204379562,29.024965940054496,7.5,8.8,7.0,8.1,332.0,708.0,1.0,2.7,0.57,1.05,32.0,170.0,140.0,350.0,2.0,2.0,19.206533535391465,37.63091457108775,28.418724053239607
2625.0,River Markanda D/S Kala Amb/ Boundary Of Haryana,Himachal Pradesh,,"River Markanda D/S Kala Amb/ Boundary Of Haryana, Himachal Pradesh, India",30.5034529,77.2169273,26.71,84.0,1.99,Clouds,2,20.42956204379562,29.024965940054496,7.2,8.9,7.4,8.3,367.0,567.0,1.6,2.8,0.66,1.17,46.0,350.0,220.0,540.0,2.0,2.0,26.93472838600587,39.51874495580463,33.22673667090525
2624.0,River Markanda U/S Kala Amb,Himachal Pradesh,,"River Markanda U/S Kala Amb, Himachal Pradesh, India",30.5034529,77.2169273,26.71,84.0,1.99,Clouds,2,20.42956204379562,29.024965940054496,7.4,8.7,7.6,8.3,349.0,540.0,1.3,2.7,0.48,0.98,40.0,280.0,220.0,430.0,2.0,2.0,25.311502926681673,38.97664817907908,32.14407555288037
30007.0,River Markanda At Naraingarh (Haryana),Haryana,,"River Markanda At Naraingarh (Haryana), Haryana, India",30.3900847,77.1783519,27.05,84.0,2.06,Clouds,2,18.0,33.0,0.3,6.0,7.2,8.2,549.0,1242.0,1.0,3.3000373692077725,0.49,1.62,450.0,636.0863579474343,395.1527835914609,1565.5568332596197,5.957692307692308,91.9023746701847,31.59388375331577,47.6280433725396,39.61096356292769
1444.0,River Kali At D/S West Coast Paper Mill (Wcpm),Karnataka,,"River Kali At D/S West Coast Paper Mill (Wcpm), Karnataka, India",15.2561879,74.6100266,22.84,96.0,1.68,Clouds,6,25.0,29.0,7.3,7.6,7.1,7.9,63.0,104.0,2.0,2.8,0.32,0.32,94.0,180.0,203.0,660.0,16.0,84.0,28.33057122925361,39.12015538433517,33.72536330679439
2780.0,"River Kali At U/S Of Wcpm, Dandeli",Karnataka,,"River Kali At U/S Of Wcpm, Dandeli, Karnataka, India",14.87564537560594,74.2413716611186,25.45,92.0,0.94,Clouds,6,26.0,27.0,7.5,7.8,6.8,7.7,54.0,83.0,2.0,2.5,0.3,0.32,58.0,140.0,172.0,580.0,14.0,63.0,26.26874955565921,35.170698173627635,30.71972386464342
1894.0,River Kumaradhara U/S Of Uppinagady Town Before Confluence With Nethravathi,Karnataka,,"River Kumaradhara U/S Of Uppinagady Town Before Confluence With Nethravathi, Karnataka, India",12.8385137,75.2537397,23.48,97.0,0.92,Clouds,4,27.8,34.0,7.0,7.8,7.3,8.0,128.0,152.0,2.0,2.0,0.3,3.4,17.0,94.0,110.0,920.0,5.957692307692308,91.9023746701847,29.930704061613536,32.899789275478824,31.41524666854618
3562.0,River Netravathi At Thumbe Water Supply Stations To Mangalore City,Karnataka,,"River Netravathi At Thumbe Water Supply Stations To Mangalore City, Karnataka, India",12.8816523,75.0010721,23.55,88.0,2.57,Clouds,4,27.0,32.0,6.6,7.6,7.3,7.8,118.0,170.0,2.0,2.0,0.3,2.4,11.0,140.0,94.0,1100.0,5.957692307692308,91.9023746701847,30.545795945805583,32.02459019037463,31.28519306809011
3563.0,River Netravathi At U/S Of Uppinangadi Town,Karnataka,,"River Netravathi At U/S Of Uppinangadi Town, Karnataka, India",12.8385137,75.2537397,23.48,97.0,0.92,Clouds,4,28.0,32.7,6.9,7.8,7.2,7.9,129.0,160.0,3.0,3.0,0.3,2.9,26.0,94.0,140.0,920.0,5.957692307692308,91.9023746701847,37.7326065821145,40.52642989565707,39.12951823888578
1892.0,River Netravathi U/S Of Dharmastala At Water Supply Intake Point,Karnataka,,"River Netravathi U/S Of Dharmastala At Water Supply Intake Point, Karnataka, India",12.9545854,75.3810601,23.41,97.0,0.62,Clouds,4,28.0,32.0,6.8,7.7,7.3,8.0,134.0,150.0,2.0,2.0,0.3,2.2,14.0,130.0,90.0,950.0,5.957692307692308,91.9023746701847,30.238214469349035,33.02089783398245,31.629556151665746
4496.0,River Aghanashini Marigadde (Sirsi),Karnataka,,"River Aghanashini Marigadde (Sirsi), Karnataka, India",14.48798388654794,74.56956982901116,24.02,94.0,0.99,Clouds,6,20.0,27.0,7.2,7.8,7.1,7.5,55.0,118.0,2.0,2.6,0.3,0.43,38.0,58.0,70.0,120.0,13.0,23.0,28.467092524171814,34.81037661820153,31.638734571186674
4497.0,River Kengre Hole (Sirsi),Karnataka,,"River Kengre Hole (Sirsi), Karnataka, India",14.662231,74.7684431,21.86,98.0,1.5,Clouds,6,20.0,26.0,7.2,7.8,6.8,7.4,63.0,118.0,2.0,2.5,0.3,0.32,32.0,63.0,56.0,180.0,9.0,24.0,26.723393931417654,33.40483206229826,30.064112996857958
1443.0,"River Achankovil At Chennithala, Alappuzha",Kerala,,"River Achankovil At Chennithala, Alappuzha, Kerala, India",9.32238724623418,76.45196886261508,24.41,93.0,3.08,Clouds,8,25.0,29.0,5.0,7.0,6.1,8.2,104.0,289.0,1.0,2.1,0.0,6.44,170.0,240.0,700.0,940.0,2.0,20.0,17.858301898843195,36.27185845952827,27.06508017918573
3465.0,"River Achankovil At Kallarakadavu, Pathanamthitta",Kerala,,"River Achankovil At Kallarakadavu, Pathanamthitta, Kerala, India",9.2596534,76.7903191,23.41,96.0,1.53,Clouds,8,25.0,29.0,6.1,7.4,6.4,8.2,79.0,244.0,1.0,1.7,0.0,2.4,120.0,330.0,810.0,1200.0,2.0,80.0,17.889183116146658,32.24445033673129,25.066816726438972
3466.0,River Achankovil At Pandalam,Kerala,,"River Achankovil At Pandalam, Kerala, India",9.2249929,76.678471,23.85,95.0,1.69,Clouds,8,25.0,29.0,5.3,7.4,6.8,7.9,96.0,247.0,1.0,2.8,0.0,2.8,79.0,210.0,700.0,840.0,2.0,2.0,21.433055664691896,39.528693781078324,30.480874722885112
1342.0,River Achankovil At Thumpamon,Kerala,,"River Achankovil At Thumpamon, Kerala, India",9.2195645,76.71200639999999,23.79,96.0,1.64,Clouds,8,24.0,28.0,4.9,7.6,6.5,7.9,83.0,246.0,1.0,3.0,0.0,1.8,170.0,350.0,790.0,1000.0,2.0,20.0,20.335304625853766,40.870717635377986,30.603011130615876
2319.0,River Ancharakandy At Ancharakandy,Kerala,,"River Ancharakandy At Ancharakandy, Kerala, India",11.8858342,75.48508919999999,24.24,91.0,3.08,Clouds,8,28.0,31.0,5.9,7.8,7.12699808795411,7.1,134.0,662.4912944738834,1.0,3.5,0.3,0.3,100.0,490.0,150.0,920.0,10.0,49.0,22.421877496509463,40.01640128795928,31.219139392234375
2297.0,River Ancharakandy At Meruvambayi,Kerala,,"River Ancharakandy At Meruvambayi, Kerala, India",11.8731978,75.5720637,24.36,93.0,2.21,Clouds,8,27.0,31.0,5.7,8.5,7.12699808795411,7.8,79.0,1575.0,1.0,3.0,0.3,0.41,100.0,220.0,200.0,400.0,10.0,20.0,22.730483547027863,38.8109419981777,30.770712772602778
5176.0,River Kanampuzha In Kannur Muncipality,Kerala,,"River Kanampuzha In Kannur Muncipality, Kerala, India",11.8710726,75.40848220000001,24.55,89.0,4.5,Clouds,8,20.42956204379562,29.024965940054496,2.8,7.9,6.3,7.7,257.53576807228916,662.4912944738834,1.0,4.2,0.0,0.0,170.0,540.0,395.1527835914609,1565.5568332596197,5.957692307692308,91.9023746701847,22.411690695762964,49.109565830412244,35.760628263087604
2286.0,River Ayiroor At Ayiroor Bridge,Kerala,,"River Ayiroor At Ayiroor Bridge, Kerala, India",9.3622433,76.72973379999999,23.39,96.0,1.5,Rain,8,26.0,29.0,5.1,7.8,6.1,7.3,111.0,254.0,1.0,2.7,0.3,0.32,95.31980715146645,2000.0,1300.0,4000.0,2.0,2.0,17.6947027426117,35.0542101142179,26.374456428414803
2331.0,River Bharathapuzha At Kuttippuram,Kerala,,"River Bharathapuzha At Kuttippuram, Kerala, India",10.8423474,76.02988040000001,24.65,92.0,3.88,Rain,8,26.0,34.0,5.5,8.2,7.3,7.9,107.0,408.0,1.0,3.7,0.3,0.7,100.0,490.0,200.0,630.0,2.0,160.0,24.043437013926656,45.70337348475221,34.873405249339434
2332.0,River Bharathapuzha At Pattambi,Kerala,,"River Bharathapuzha At Pattambi, Kerala, India",10.8057301,76.1956647,24.72,94.0,2.3,Rain,8,25.0,34.0,6.5,8.3,7.3,8.0,161.0,460.0,1.0,3.9,0.3,0.69,2.0,400.0,100.0,600.0,2.0,200.0,22.47183121307778,47.74777539290693,35.109803302992354
2328.0,River Bharathapuzha Rsvr At Malampuzha,Kerala,,"River Bharathapuzha Rsvr At Malampuzha, Kerala, India",10.8280802,76.7368037,24.23,99.0,4.43,Rain,8,25.0,32.0,6.7,7.6,7.2,7.9,79.0,158.0,1.0,3.0,0.3,0.59,2.0,310.0,100.0,500.0,2.0,40.0,21.582746416403612,40.813157089442555,31.197951752923082
1154.0,"River Chalakudy At Pulikkakadavu, Thrissur",Kerala,,"River Chalakudy At Pulikkakadavu, Thrissur, Kerala, India",10.2402897,76.3315622,23.99,94.0,1.03,Mist,8,26.0,29.0,6.1,7.3,6.6,8.9,66.0,400.0,1.0,2.8,0.3,1.15,5.0,2000.0,310.0,7900.0,8.0,400.0,19.02586976282685,45.97983042256513,32.502850092695994
21.0,River Chaliyar At Chungapally,Kerala,,"River Chaliyar At Chungapally, Kerala, India",11.32608982903372,76.03318367509772,23.31,94.0,1.39,Clouds,8,26.0,30.0,6.1,7.9,7.12699808795411,7.7,50.0,662.4912944738834,1.0,1.0,0.3,0.96,90.0,4900.0,250.0,6300.0,2.0,430.0,22.11075442878709,24.12801434019183,23.119384384489457
20.0,River Chaliyar At Koolimadu,Kerala,,"River Chaliyar At Koolimadu, Kerala, India",11.2720185,75.97644,23.55,94.0,1.03,Mist,8,25.0,30.0,6.0,8.0,6.4,7.7,38.0,121.0,1.0,1.0,0.3,0.36,100.0,5400.0,250.0,6300.0,10.0,540.0,18.046798843133352,24.09991038992961,21.073354616531482
3464.0,"River Chaliyar At Nilambur, Malappuram",Kerala,,"River Chaliyar At Nilambur, Malappuram, Kerala, India",11.32608982903372,76.03318367509772,23.31,94.0,1.39,Clouds,8,25.0,32.0,6.6,8.0,6.5,7.6,43.0,109.0,1.0,1.1,0.3,0.3,310.0,636.0863579474343,1200.0,8400.0,2.0,91.9023746701847,17.767049944872713,22.935174719184925,20.35111233202882
5192.0,"River Chaliyar Beypore Port, Kozhikode",Kerala,,"River Chaliyar Beypore Port, Kozhikode, Kerala, India",11.166732,75.80792900000002,23.62,94.0,1.03,Mist,8,20.42956204379562,29.024965940054496,4.3,7.7,6.4,8.2,257.53576807228916,662.4912944738834,1.0,2.8,0.0,0.0,10.0,2100.0,395.1527835914609,1565.5568332596197,5.957692307692308,91.9023746701847,20.63150342426381,41.267339552404245,30.949421488334025
1573.0,"River Chithrapuzha At Irumpanam, Kerala",Kerala,,"River Chithrapuzha At Irumpanam, Kerala, Kerala, India",9.9681462,76.35504569999999,24.0,94.0,3.78,Rain,8,27.0,30.0,0.7,6.7,6.4,9.1,135.0,2399.0,1.0,4.8,0.3,1.9082062950322338,95.31980715146645,636.0863579474343,2200.0,12000.0,5.957692307692308,91.9023746701847,26.22532403264834,64.1535285841607,45.18942630840452
5215.0,"River Chitturpuzha At Chittur Bridge, Palakkad",Kerala,,"River Chitturpuzha At Chittur Bridge, Palakkad, Kerala, India",10.6888373,76.7188798,24.49,99.0,4.12,Rain,8,27.0,33.0,5.9,7.6,7.8,8.4,299.0,470.0,1.1,3.0,0.3,0.5,2.0,490.0,2.0,600.0,2.0,60.0,27.122603659626247,43.7665985612928,35.44460111045952
2287.0,River Ithikkara At Ithikkara,Kerala,,"River Ithikkara At Ithikkara, Kerala, India",8.870249388161128,76.80281640991561,23.1,97.0,2.28,Clouds,8,25.0,28.0,5.1,6.9,7.1,7.8,106.0,662.4912944738834,1.0,2.9,0.0,3.5,220.0,480.0,700.0,1200.0,20.0,100.0,23.525146946967485,40.64837552447267,32.086761235720076
1564.0,River Ithikkara Kerala,Kerala,,"River Ithikkara Kerala, Kerala, India",8.870249388161128,76.80281640991561,23.1,97.0,2.28,Clouds,8,24.0,29.0,6.4,7.4,6.4,8.1,111.0,1101.0,1.0,2.6,0.0,2.2,150.0,200.0,700.0,940.0,2.0,2.0,17.43505398861585,39.02023824193084,28.227646115273345
5204.0,"River Ithikkara At Kalladathanni, Kollam",Kerala,,"River Ithikkara At Kalladathanni, Kollam, Kerala, India",8.870249388161128,76.80281640991561,23.1,97.0,2.28,Clouds,8,24.0,29.0,5.5,7.1,6.5,7.4,106.0,662.4912944738834,1.0,2.0,0.0,0.9,130.0,200.0,630.0,790.0,2.0,31.0,19.397612075489224,30.4352401762783,24.91642612588376
2293.0,River Kadalundi At Hajirappally,Kerala,,"River Kadalundi At Hajirappally, Kerala, India",11.1360492,75.8272482,23.57,94.0,1.03,Mist,8,22.0,24.0,6.0,9.0,6.6,7.6,81.0,126.0,1.0,3.0,0.3,0.7,20.0,250.0,31.0,490.0,2.0,49.0,19.18371437935188,36.898295322707,28.04100485102944
1566.0,"River Kadalundi At Thirurangady, Kerala",Kerala,,"River Kadalundi At Thirurangady, Kerala, Kerala, India",11.09647139415746,75.86210502984649,23.63,94.0,1.03,Mist,8,22.0,24.0,5.5,8.2,6.8,7.8,76.0,153.0,1.0,3.0,0.3,0.55,20.0,280.0,49.0,1200.0,2.0,120.0,21.116166269582447,39.298883239605125,30.207524754593784
5202.0,"River Kallada At Kulathupuzha, Kollam",Kerala,,"River Kallada At Kulathupuzha, Kollam, Kerala, India",9.030974028909531,76.81423669057355,23.29,98.0,1.46,Clouds,8,24.0,28.0,3.0,8.3,6.4,7.6,74.0,662.4912944738834,1.0,6.4,0.0,1.7,200.0,636.0863579474343,840.0,9400.0,20.0,91.9023746701847,22.694060381316977,66.1220261240975,44.40804325270724
5203.0,"River Kallada At Mundrothuruth, Kollam",Kerala,,"River Kallada At Mundrothuruth, Kollam, Kerala, India",8.995245599999999,76.6105054,24.23,94.0,3.33,Clouds,8,22.0,29.0,4.4,6.9,6.5,7.4,126.0,662.4912944738834,1.0,3.6,0.0,3.4,210.0,310.0,700.0,1000.0,20.0,49.0,21.118027881699224,44.02916241142485,32.573595146562035
2337.0,River Kadambrayar At Brahmapuram,Kerala,,"River Kadambrayar At Brahmapuram, Kerala, India",10.000969,76.3787808,23.81,94.0,1.03,Mist,8,28.0,30.0,0.8,5.8,6.5,8.2,102.0,1768.0,1.0,5.0,0.3,7.4,210.0,636.0863579474343,1500.0,1565.5568332596197,5.957692307692308,91.9023746701847,26.6836080665837,62.13092804001414,44.40726805329892
2338.0,River Kadambrayar At Manckakadavu,Kerala,,"River Kadambrayar At Manckakadavu, Kerala, India",12.2180288,75.50146409999999,23.44,97.0,1.59,Clouds,8,28.0,29.0,1.2,5.2,6.4,8.9,94.0,160.0,1.0,3.4,0.3,0.75,400.0,3800.0,1500.0,6300.0,5.957692307692308,430.0,25.542328016727215,54.66762147519208,40.104974745959645
42.0,"River Kallada At Perumthottamkadavu, Punaloor",Kerala,,"River Kallada At Perumthottamkadavu, Punaloor, Kerala, India",9.030974028909531,76.81423669057355,23.29,98.0,1.46,Clouds,8,24.0,29.0,6.1,8.3,6.4,7.5,72.0,244.0,1.0,2.0,0.0,4.5,120.0,430.0,630.0,1200.0,2.0,31.0,17.888650100738758,29.366049395857807,23.627349748298283
2294.0,"River Kallayi At Kallayi Bridge, Kozhikode",Kerala,,"River Kallayi At Kallayi Bridge, Kozhikode, Kerala, India",11.2375545,75.7873489,23.59,91.0,5.59,Clouds,8,26.0,31.0,0.4,5.2,6.6,8.0,482.0,662.4912944738834,2.4,3.3000373692077725,0.3,1.86,95.31980715146645,636.0863579474343,395.1527835914609,1565.5568332596197,5.957692307692308,91.9023746701847,39.35968510850897,47.709395639467935,43.53454037398845
5225.0,"River Kallayi At Kothi Bridge, Kozhikode",Kerala,,"River Kallayi At Kothi Bridge, Kozhikode, Kerala, India",11.2288706,75.7800592,23.62,88.0,6.14,Clouds,8,27.0,31.0,1.1,7.0,6.7,8.0,523.0,662.4912944738834,1.0,4.7,0.3,3.48,60.0,636.0863579474343,170.0,1565.5568332596197,20.0,91.9023746701847,27.33381835025861,56.507955260874034,41.920886805566326
5224.0,"River Kallayi At Mooriyadu, Kozhikode",Kerala,,"River Kallayi At Mooriyadu, Kozhikode, Kerala, India",11.2435194,75.7944209,23.59,91.0,5.59,Clouds,8,26.0,32.0,0.7,4.4,6.7,8.0,305.0,662.4912944738834,2.9,3.3000373692077725,0.3,2.28,95.31980715146645,636.0863579474343,2600.0,1565.5568332596197,5.957692307692308,91.9023746701847,43.596927123905466,48.95858195551343,46.27775453970945
3460.0,"River Kalpathi Puzha At Kalpathi, Palakkad",Kerala,,"River Kalpathi Puzha At Kalpathi, Palakkad, Kerala, India",10.7950691,76.6452193,24.71,99.0,3.95,Rain,8,25.0,32.0,4.8,7.3,7.4,8.3,199.0,815.0,1.3,3.1,0.3,0.88,2.0,490.0,100.0,630.0,2.0,80.0,28.142014865336524,44.485194252998895,36.31360455916771
3471.0,"River Karamana At Aruvikara, Thiruvananthapuram",Kerala,,"River Karamana At Aruvikara, Thiruvananthapuram, Kerala, India",8.45410732975725,76.96430549671042,25.94,78.0,6.17,Mist,8,26.0,28.0,6.7,8.0,6.2,8.8,59.0,160.0,1.0,2.1,0.3,0.3,100.0,920.0,490.0,1300.0,2.0,2.0,15.806652950971229,38.19129072693832,26.998971838954773
1155.0,"River Karamana At Moonnattumukku, Kerala",Kerala,,"River Karamana At Moonnattumukku, Kerala, Kerala, India",8.4419138,76.9505426,25.95,78.0,6.17,Mist,8,26.0,29.0,0.4,6.5,6.6,7.6,253.0,1299.0,2.5,7.3,0.3,5.2,95.31980715146645,636.0863579474343,395.1527835914609,1565.5568332596197,2.0,2.0,40.18223975032997,76.40589343358126,58.29406659195561
5196.0,"River Karamana At Peppara Upstream, Peppara Dam, Thiruvananthapuram",Kerala,,"River Karamana At Peppara Upstream, Peppara Dam, Thiruvananthapuram, Kerala, India",8.45410732975725,76.96430549671042,25.94,78.0,6.17,Mist,8,26.0,29.0,7.0,8.1,5.9,7.8,51.0,99.0,1.0,1.9,0.3,0.3,100.0,580.0,310.0,790.0,2.0,2.0,13.601552531565133,30.483493489560654,22.042523010562896
5195.0,"River Karamana At Thiruvallom, Thiruvananthapuram",Kerala,,"River Karamana At Thiruvallom, Thiruvananthapuram, Kerala, India",8.4478996,76.9556643,25.94,78.0,6.17,Mist,8,26.0,29.0,4.1,8.3,6.5,7.5,154.0,1001.0,1.0,5.2,0.3,0.3,95.31980715146645,636.0863579474343,395.1527835914609,10000.0,2.0,2.0,21.55682048939047,55.62133915656723,38.58907982297885
3458.0,River Karapuzha Dam At Wayanad,Kerala,,"River Karapuzha Dam At Wayanad, Kerala, India",11.6182113,76.1722152,20.51,98.0,1.08,Clouds,8,23.0,32.0,6.1,8.0,6.2,7.3,124.0,159.0,1.0,1.5,0.3,0.3,2.0,84.0,2.0,170.0,2.0,55.0,16.701562131261657,24.295658588857517,20.498610360059587
2289.0,River Karuvannur At Karuvannur Bridge,Kerala,,"River Karuvannur At Karuvannur Bridge, Kerala, India",10.4034585,76.2160985,24.79,95.0,2.86,Rain,8,17.0,30.0,4.7,7.3,6.6,8.6,48.0,140.0,1.0,2.9,0.3,0.3,2.0,310.0,2.0,790.0,2.0,2.0,21.183275290006957,44.50793400724751,32.84560464862724
2301.0,River Kavvai At Kuttiyol Palam,Kerala,,"River Kavvai At Kuttiyol Palam, Kerala, India",12.087948,75.1793444,24.89,90.0,4.69,Clouds,8,28.0,31.0,3.3,7.8,5.9,6.8,108.0,271.0,1.0,3.5,0.3,0.3,200.0,400.0,400.0,800.0,10.0,20.0,19.337903834007836,38.24751475598514,28.792709294996484
2295.0,River Korapuzha At Kanayankode,Kerala,,"River Korapuzha At Kanayankode, Kerala, India",11.4227134,75.7117075,24.67,91.0,4.45,Clouds,8,26.0,31.0,4.5,6.6,5.9,7.4,350.0,662.4912944738834,1.0,3.6,0.3,1.25,79.0,3400.0,100.0,4600.0,2.0,220.0,17.45043705069969,45.33891982339484,31.394678437047265
2326.0,"River Korayar Near Naragampally Bridge At Kanjikode, Palakkad",Kerala,,"River Korayar Near Naragampally Bridge At Kanjikode, Palakkad, Kerala, India",10.7885645,76.7193279,24.56,99.0,4.6,Rain,8,26.0,31.0,5.3,7.9,7.9,8.4,525.0,861.0,1.0,2.8,0.3,0.85,2.0,200.0,2.0,600.0,2.0,80.0,27.80604979584517,41.585722881448696,34.69588633864693
5210.0,"River Kothamangalam At Kooroor Thodu, Ernakulam",Kerala,,"River Kothamangalam At Kooroor Thodu, Ernakulam, Kerala, India",9.9886019,76.2853598,23.99,93.0,4.97,Clouds,8,25.0,30.0,6.2,8.1,6.2,6.8,27.0,83.0,1.0,2.3,0.3,0.74,3.0,70.0,5.0,350.0,2.0,380.0,16.547638139181405,27.83120555113634,22.189421845158872
2298.0,River Kuppam At Rayarom,Kerala,,"River Kuppam At Rayarom, Kerala, India",12.2087087,75.4315594,22.29,97.0,1.62,Clouds,8,27.0,32.0,5.6,7.8,6.0,7.4,69.0,200.0,1.0,3.8,0.3,0.3,79.0,250.0,200.0,410.0,10.0,20.0,16.334841027606227,44.153366700020456,30.244103863813343
1569.0,"River Kuppam Thaliparamba, Kerala",Kerala,,"River Kuppam Thaliparamba, Kerala, Kerala, India",12.0501542,75.34959909999999,24.09,92.0,2.83,Clouds,8,28.0,32.0,3.3,8.9,6.0,7.3,200.0,662.4912944738834,1.0,3.6,0.3,2.8,170.0,450.0,280.0,920.0,10.0,20.0,19.90929170626219,40.383240766367166,30.14626623631468
5234.0,"River Kuppam At Urooteri, Kannur",Kerala,,"River Kuppam At Urooteri, Kannur, Kerala, India",12.0501542,75.34959909999999,24.09,92.0,2.83,Clouds,8,27.0,31.0,3.6,7.8,7.12699808795411,7.2,66.0,683.0,1.0,2.6,0.3,0.3,49.0,200.0,100.0,400.0,10.0,20.0,25.95389422630317,33.106621790665976,29.530258008484573
1567.0,"River Kuttiyady Estate, Kerala",Kerala,,"River Kuttiyady Estate, Kerala, Kerala, India",11.6543212,75.7535455,24.52,96.0,1.48,Clouds,8,27.0,32.0,6.3,7.8,6.0,7.8,23.0,34.0,1.0,1.0,0.3,0.3,58.0,2200.0,94.0,4100.0,2.0,94.0,15.248705660272677,24.032704127417908,19.640704893845292
1568.0,"River Mahe At Valayam, Kozhikode",Kerala,,"River Mahe At Valayam, Kozhikode, Kerala, India",11.7206433,75.67026469999999,24.46,94.0,2.44,Clouds,8,26.0,30.0,5.7,7.9,6.2,7.4,39.0,99.0,1.0,1.1,0.3,0.3,100.0,4600.0,200.0,8400.0,2.0,310.0,17.348084157339542,23.101942906321028,20.225013531830285
2285.0,River Mamom At Mamom Bridge,Kerala,,"River Mamom At Mamom Bridge, Kerala, India",8.6763978,76.8280092,25.87,93.0,4.11,Clouds,8,26.0,29.0,6.2,8.0,6.3,7.3,105.0,167.0,1.0,2.8,0.3,0.3,700.0,2200.0,920.0,3500.0,2.0,2.0,17.33736985088858,35.62531894153023,26.48134439620941
1340.0,"River Manimala At Kalloopara, Kerala",Kerala,,"River Manimala At Kalloopara, Kerala, Kerala, India",9.3955113,76.6340511,23.64,95.0,1.38,Clouds,8,27.0,30.0,6.5,7.9,6.9,8.0,154.0,864.0,1.0,6.9,0.3,0.3,2.0,2000.0,2.0,1565.5568332596197,2.0,580.0,20.14903379183497,73.50372369251855,46.82637874217676
1384.0,"River Manimala At Thondra, Kerala",Kerala,,"River Manimala At Thondra, Kerala, Kerala, India",9.490483254864348,76.67559284543603,23.59,97.0,1.19,Clouds,8,27.0,30.0,6.5,8.0,6.8,7.4,159.0,1586.0,1.0,3.8,0.3,0.85,2.0,1000.0,2.0,10000.0,2.0,2.0,19.568406985843676,44.11550323032799,31.841955108085834
3459.0,"River Maniyankode Puzha At Maniyankode Bridge, Wayanad",Kerala,,"River Maniyankode Puzha At Maniyankode Bridge, Wayanad, Kerala, India",11.631187,76.06576419999999,20.54,97.0,1.39,Clouds,8,23.0,32.0,5.0,8.0,6.5,6.9,109.0,222.0,1.0,1.6,0.3,0.35,2.0,170.0,22.0,310.0,2.0,150.0,20.140020721925566,22.82341476516764,21.481717743546604
2307.0,River Manjeshwar At Bajrakkara Br.,Kerala,,"River Manjeshwar At Bajrakkara Br., Kerala, India",12.7245542,74.8850112,23.56,91.0,3.4,Clouds,8,27.0,32.0,6.2,7.8,6.9,8.2,84.0,168.0,1.0,2.0,0.3,0.3,2.0,400.0,340.0,1000.0,2.0,94.0,20.612721662347447,34.03856265189035,27.3256421571189
5245.0,"River Manjeshwar At Bangra-Manjeshwar Bridge,Hosdurg, Kasaragod",Kerala,,"River Manjeshwar At Bangra-Manjeshwar Bridge,Hosdurg, Kasaragod, Kerala, India",12.7060644,74.9062654,23.44,93.0,2.81,Clouds,8,27.0,32.0,5.1,7.7,6.5,7.9,165.0,662.4912944738834,1.0,2.6,0.3,6.73,94.0,390.0,490.0,920.0,2.0,120.0,20.014420576381784,37.61810882537693,28.81626470087936
1339.0,"River Meenachil At Kidangoor, Kottayam",Kerala,,"River Meenachil At Kidangoor, Kottayam, Kerala, India",9.6821084,76.60799329999999,23.87,97.0,1.07,Clouds,8,27.0,28.0,6.5,9.1,6.0,6.7,33.0,81.0,1.0,1.5,0.3,0.43,2.0,450.0,150.0,790.0,2.0,2.0,14.923830795026483,19.23034708365134,17.07708893933891
5244.0,"River Mogral At Madhur Bridge Near Madhur Sri Sidhivinayaka Temple, Kasaragod",Kerala,,"River Mogral At Madhur Bridge Near Madhur Sri Sidhivinayaka Temple, Kasaragod, Kerala, India",12.5547746,75.0100853,23.47,93.0,1.92,Clouds,8,26.0,31.0,5.6,7.8,6.9,8.4,66.0,161.0,1.0,2.7,0.3,0.66,130.0,240.0,260.0,840.0,2.0,63.0,21.575762056554346,40.92300669204652,31.249384374300433
2304.0,River Mogral At Mogral Br.,Kerala,,"River Mogral At Mogral Br., Kerala, India",12.5743154,74.9727072,23.72,93.0,2.39,Clouds,8,27.0,32.0,5.2,7.2,6.0,7.7,371.0,662.4912944738834,1.0,2.2,0.3,3.5,40.0,480.0,310.0,840.0,2.0,90.0,16.940534073438965,33.84611320889426,25.39332364116661
5211.0,"River Muvattapuzha At Peruvammuzhi Bridge, Ernakulam",Kerala,,"River Muvattapuzha At Peruvammuzhi Bridge, Ernakulam, Kerala, India",9.9816358,76.2998842,24.01,93.0,4.97,Clouds,8,25.0,30.0,6.5,8.1,7.12699808795411,6.9,29.0,200.0,1.0,2.8,0.3,1.2,2.0,17.0,2.0,39.0,2.0,130.0,21.46704553958423,32.52480696416694,26.995926251875588
43.0,River Muvattapuzha At Vettikkattumukku,Kerala,,"River Muvattapuzha At Vettikkattumukku, Kerala, India",9.9894229,76.57897489999999,23.92,97.0,0.53,Clouds,8,26.0,28.0,6.2,8.1,7.12699808795411,6.7,48.0,84.0,1.0,1.1,0.3,0.74,2.0,400.0,100.0,700.0,2.0,2.0,21.930022722886175,17.478678953590073,19.704350838238124
1563.0,River Neyyar At Amaravila,Kerala,,"River Neyyar At Amaravila, Kerala, India",8.3885185,77.1053673,25.89,92.0,3.84,Clouds,8,26.0,30.0,6.0,8.1,6.3,7.4,74.0,180.0,1.0,1.5,0.3,0.3,95.31980715146645,1800.0,1000.0,3100.0,2.0,2.0,17.467007037508186,25.238874061400647,21.352940549454416
2284.0,River Neyyar At Aruvipuram,Kerala,,"River Neyyar At Aruvipuram, Kerala, India",8.4244937,77.0981743,25.82,92.0,3.59,Clouds,8,26.0,29.0,5.9,7.6,6.4,7.4,74.0,171.0,1.0,2.7,0.3,0.3,95.31980715146645,2200.0,1300.0,3500.0,2.0,2.0,18.202751197854088,36.00030708706628,27.101529142460187
2288.0,River Pallickal At Nellimukal,Kerala,,"River Pallickal At Nellimukal, Kerala, India",9.1231118,76.671377,23.7,95.0,2.1,Clouds,8,24.0,28.0,6.4,8.6,6.3,8.1,110.0,299.0,1.0,2.1,0.0,5.5,58.0,150.0,580.0,790.0,2.0,20.0,16.82682882928217,33.16210827313631,24.99446855120924
1156.0,"River Pamba At Chengannur, Alappuzha",Kerala,,"River Pamba At Chengannur, Alappuzha, Kerala, India",9.3183275,76.61108449999999,23.87,95.0,1.57,Clouds,8,26.0,28.0,6.2,6.8,6.5,7.4,40.0,56.0,1.0,1.0,0.3,0.52,70.0,130.0,200.0,410.0,2.0,2.0,18.30993600847457,22.636635078417953,20.47328554344626
5205.0,"River Pamba At Munnar, Pathanamthitta",Kerala,,"River Pamba At Munnar, Pathanamthitta, Kerala, India",9.400518115801724,76.76171901748995,23.72,96.0,1.46,Clouds,8,25.0,29.0,5.9,6.9,6.5,7.2,45.0,54.0,1.0,1.1,0.3,0.38,58.0,100.0,170.0,310.0,2.0,2.0,18.768980722544903,22.12940928534087,20.449195003942886
1341.0,"River Pamba At Thakazhy, Kerala",Kerala,,"River Pamba At Thakazhy, Kerala, Kerala, India",9.3706608,76.4114733,24.68,92.0,4.5,Clouds,8,25.0,30.0,4.8,6.9,6.3,7.1,48.0,81.0,1.0,1.7,0.3,0.3,58.0,94.0,170.0,280.0,2.0,2.0,19.304246059318128,26.479320137621457,22.891783098469794
5207.0,"River Pamba At Veeyapuram, Alappuzha",Kerala,,"River Pamba At Veeyapuram, Alappuzha, Kerala, India",9.3361474,76.4649847,24.41,93.0,3.08,Clouds,8,27.0,29.0,5.5,7.7,6.5,7.5,185.0,463.0,1.2,4.1,0.3,0.32,2.0,4900.0,2.0,7900.0,2.0,91.9023746701847,21.013925804926167,48.75575342026822,34.88483961259719
10017.0,River Pamba D/S,Kerala,,"River Pamba D/S, Kerala, India",9.400518115801724,76.76171901748995,23.72,96.0,1.46,Clouds,8,26.0,28.0,6.2,7.4,6.5,7.4,48.0,76.0,1.0,2.5,0.3,0.31,150.0,636.0863579474343,430.0,1565.5568332596197,2.0,49.0,18.334306657402443,34.195187513961955,26.2647470856822
1565.0,"River Pamba Down, Kerala",Kerala,,"River Pamba Down, Kerala, Kerala, India",9.400518115801724,76.76171901748995,23.72,96.0,1.46,Clouds,8,26.0,29.0,5.1,6.5,6.2,6.9,47.0,62.0,1.0,1.5,0.3,0.42,61.0,110.0,240.0,340.0,2.0,20.0,18.262027910085425,24.299175767991855,21.28060183903864
5191.0,"River Pamba Near Thottappally Harbour, Alappuzha",Kerala,,"River Pamba Near Thottappally Harbour, Alappuzha, Kerala, India",9.322183,76.383986,24.75,92.0,4.52,Clouds,8,20.42956204379562,29.024965940054496,4.7,8.1,6.3,7.5,257.53576807228916,662.4912944738834,1.7601102307957286,3.3000373692077725,0.0,0.0,2.0,636.0863579474343,395.1527835914609,1565.5568332596197,5.957692307692308,91.9023746701847,25.683913665904903,40.26562289421924,32.97476828006207
10016.0,River Pamba U/S,Kerala,,"River Pamba U/S, Kerala, India",9.400518115801724,76.76171901748995,23.72,96.0,1.46,Clouds,8,26.0,28.0,6.5,7.6,6.7,7.6,40.0,58.0,1.0,1.0,0.3,0.3,100.0,3500.0,310.0,11000.0,2.0,2.0,19.017711956202678,23.585296335793252,21.301504145997967
17.0,River Periyar At Aluva-Eloor,Kerala,,"River Periyar At Aluva-Eloor, Kerala, India",10.0669103,76.2989896,23.95,94.0,1.03,Mist,8,26.0,31.0,3.0,7.8,6.5,9.4,86.0,662.4912944738834,1.0,3.2,0.3,2.65,400.0,636.0863579474343,910.0,1565.5568332596197,17.0,91.9023746701847,23.345085800513402,51.03423582791848,37.18966081421594
18.0,River Periyar At Kalady,Kerala,,"River Periyar At Kalady, Kerala, India",10.1710193,76.4468254,23.95,94.0,1.03,Mist,8,25.0,29.0,6.5,8.0,6.1,8.046132997163568,28.0,58.0,1.0,1.9,0.3,0.3,210.0,3400.0,700.0,7900.0,20.0,91.9023746701847,15.567679150788136,32.92294822581229,24.245313688300214
2335.0,River Periyar At Kalamassery,Kerala,,"River Periyar At Kalamassery, Kerala, India",10.0531493,76.3528075,23.88,94.0,1.03,Mist,8,27.0,30.0,4.2,6.8,6.4,9.0,48.0,151.0,1.0,2.9,0.3,0.61,110.0,3200.0,340.0,7000.0,43.0,200.0,20.826148463693727,48.487094063908096,34.656621263800915
3468.0,"River Periyar At Kwa Intake, Aluva",Kerala,,"River Periyar At Kwa Intake, Aluva, Kerala, India",10.1105174,76.3608545,24.01,94.0,1.03,Rain,8,26.0,29.0,5.4,7.6,6.5,8.046132997163568,36.0,65.0,1.0,2.0,0.3,0.3,84.0,2000.0,250.0,5800.0,10.0,410.0,19.54806170643638,33.94163279642909,26.744847251432734
2333.0,River Periyar At Muppathadam,Kerala,,"River Periyar At Muppathadam, Kerala, India",10.0832575,76.3148492,23.99,94.0,1.03,Mist,8,27.0,30.0,5.4,7.4,6.5,9.0,43.0,82.0,1.0,2.1,0.3,0.41,310.0,1500.0,1000.0,4300.0,17.0,91.9023746701847,19.617205649627852,40.462572688562325,30.03988916909509
5209.0,"River Periyar At Panamkutty Bridge, Idukki",Kerala,,"River Periyar At Panamkutty Bridge, Idukki, Kerala, India",9.9521566,76.98071999999999,21.85,98.0,0.21,Clouds,8,24.0,26.0,5.9,8.0,6.5,7.2,41.0,110.0,1.4,2.5,0.3,0.87,310.0,1400.0,790.0,3700.0,2.0,91.9023746701847,22.135657388895453,32.36156276349974,27.248610076197597
2334.0,River Periyar At Pathalam,Kerala,,"River Periyar At Pathalam, Kerala, India",10.0761863,76.3260992,23.96,94.0,1.03,Mist,8,27.0,30.0,4.0,7.6,6.6,8.046132997163568,105.0,662.4912944738834,1.0,3.9,0.3,1.9082062950322338,200.0,636.0863579474343,840.0,7900.0,43.0,91.9023746701847,22.32399143510947,49.23130062522011,35.77764603016479
2336.0,River Periyar At Purappallikadavu,Kerala,,"River Periyar At Purappallikadavu, Kerala, India",10.07337062026821,76.58278577271189,23.71,97.0,0.48,Clouds,8,27.0,30.0,5.5,7.6,6.6,8.1,48.0,662.4912944738834,1.0,2.9,0.3,1.01,170.0,636.0863579474343,700.0,7900.0,17.0,200.0,20.00125834731676,41.28568385362734,30.64347110047205
1338.0,"River Periyar At Sewage Discharge Point,Aluva, Ernakulam",Kerala,,"River Periyar At Sewage Discharge Point,Aluva, Ernakulam, Kerala, India",10.1003709,76.35703819999999,23.87,94.0,1.03,Mist,8,25.0,29.0,5.5,6.9,6.5,8.046132997163568,45.0,90.0,1.0,2.8,0.3,0.74,95.31980715146645,3900.0,2200.0,1565.5568332596197,20.0,91.9023746701847,19.402959062250623,42.16784676721194,30.785402914731282
5193.0,"River Periyar Azhikode Ferry, Kodungallur,Thrissur",Kerala,,"River Periyar Azhikode Ferry, Kodungallur,Thrissur, Kerala, India",10.1890339,76.1737096,24.04,91.0,5.86,Rain,8,20.42956204379562,29.024965940054496,2.7,7.3,6.9,8.5,257.53576807228916,662.4912944738834,1.0,2.9,0.0,0.0,2.0,580.0,395.1527835914609,1565.5568332596197,5.957692307692308,91.9023746701847,25.999932422314835,43.998588693560436,34.99926055793763
2329.0,River Periyar Rsvr At Bhoothathanketu,Kerala,,"River Periyar Rsvr At Bhoothathanketu, Kerala, India",10.07337062026821,76.58278577271189,23.71,97.0,0.48,Clouds,8,25.0,30.0,7.3,8.7,6.1,9.2,26.0,51.0,1.0,2.4,0.3,0.63,2.0,2800.0,340.0,4800.0,2.0,91.9023746701847,14.271188265661277,42.48099221379452,28.3760902397279
2330.0,River Periyar Rsvr At Edamalayar,Kerala,,"River Periyar Rsvr At Edamalayar, Kerala, India",10.18237894727098,76.7271583506803,23.76,97.0,1.38,Clouds,8,25.0,29.0,6.6,8.1,6.5,8.6,19.0,38.0,1.0,1.9,0.3,0.3,8.0,380.0,150.0,4000.0,2.0,400.0,17.67451254766785,35.07878944472078,26.376650996194314
5208.0,River Periyar At Kulamavu Resevoir At Idukki,Kerala,,"River Periyar At Kulamavu Resevoir At Idukki, Kerala, India",9.7919714,76.8865204,20.61,98.0,0.26,Clouds,8,22.0,26.0,5.1,7.8,6.3,6.9,48.0,73.0,1.0,2.8,0.3,0.83,2.0,1500.0,2.0,2000.0,2.0,400.0,18.82447889066733,33.418919875006104,26.121699382836717
2300.0,River Peruvamba At Chandapura,Kerala,,"River Peruvamba At Chandapura, Kerala, India",10.71852,76.5943978,24.73,99.0,3.35,Rain,8,27.0,31.0,2.3,7.8,7.12699808795411,7.0,72.0,322.0,1.0,3.8,0.3,0.3,79.0,400.0,100.0,700.0,10.0,20.0,27.96775475587353,41.87613617375967,34.9219454648166
5232.0,"River Peruvamba At Perumba Bridge, Kannur",Kerala,,"River Peruvamba At Perumba Bridge, Kannur, Kerala, India",12.1088372,75.221318,24.37,91.0,3.83,Clouds,8,28.0,31.0,3.1,7.8,6.1,7.2,450.0,662.4912944738834,1.8,3.2,0.3,0.8,40.0,490.0,400.0,920.0,10.0,78.0,27.34067342387241,38.14764316052805,32.744158292200225
2303.0,River Pullur At Pullur Bridge,Kerala,,"River Pullur At Pullur Bridge, Kerala, India",12.349556,75.0976266,24.23,92.0,3.15,Clouds,8,26.0,32.0,7.0,8.0,6.8,7.8,55.0,167.0,1.0,1.2,0.3,0.41,2.0,310.0,110.0,1100.0,2.0,40.0,18.797581818381225,24.80482703019926,21.80120442429024
5213.0,"River Puzhakkal At Panchikkal Canal, Thrissur",Kerala,,"River Puzhakkal At Panchikkal Canal, Thrissur, Kerala, India",10.50504013913315,76.10807417735202,25.01,93.0,5.53,Rain,8,23.0,37.0,1.4,7.2,6.8,8.1,98.0,433.0,1.2,2.9,0.3,0.36,2.0,350.0,100.0,840.0,2.0,2.0,29.07948522917663,41.77321529835509,35.42635026376586
2290.0,River Puzhakkal At Puzhackal Bridge,Kerala,,"River Puzhakkal At Puzhackal Bridge, Kerala, India",10.50504013913315,76.10807417735202,25.01,93.0,5.53,Rain,8,16.0,35.0,2.3,6.6,6.6,8.2,87.0,160.0,1.0,2.9,0.3,0.3,2.0,490.0,2.0,630.0,2.0,2.0,24.88477117820147,43.31785749998871,34.10131433909509
5233.0,"River Ramapuram At Kappungal, Kannur",Kerala,,"River Ramapuram At Kappungal, Kannur, Kerala, India",12.1484579,75.2785074,23.74,93.0,2.65,Clouds,8,27.0,32.0,4.8,7.8,7.12699808795411,7.4,88.0,210.0,1.0,3.0,0.3,0.3,100.0,310.0,200.0,600.0,10.0,20.0,24.118544505100804,37.59125937309079,30.854901939095797
2299.0,River Ramapuram At Ramapuram Bridge,Kerala,,"River Ramapuram At Ramapuram Bridge, Kerala, India",10.9984642,76.1422326,23.43,92.0,2.14,Rain,8,27.0,31.0,3.7,8.4,7.12699808795411,7.6,270.0,662.4912944738834,1.3,4.3,0.3,0.78,100.0,490.0,380.0,920.0,10.0,20.0,28.28326039472752,48.592146312793986,38.43770335376075
2305.0,River Shiriya At Angadimogaru,Kerala,,"River Shiriya At Angadimogaru, Kerala, India",12.6139107,74.9318376,23.99,93.0,2.69,Clouds,8,26.0,32.0,7.5,7.9,7.1,8.4,74.0,125.0,1.0,1.6,0.3,0.58,2.0,460.0,540.0,940.0,2.0,49.0,19.76959057423346,31.783194445250874,25.776392509742166
2296.0,River Thalasserry At Pathipalam,Kerala,,"River Thalasserry At Pathipalam, Kerala, India",11.7849114,75.5696775,24.48,92.0,3.02,Clouds,8,27.0,30.0,5.5,10.1,7.12699808795411,7.7,128.0,668.0,1.0,3.0,0.3,1.7,10.0,400.0,49.0,790.0,10.0,20.0,23.011843626612443,35.86426747369492,29.438055550153685
5241.0,"River Thalassery At Koduvally, Kannur",Kerala,,"River Thalassery At Koduvally, Kannur, Kerala, India",11.7680608,75.4854472,24.84,89.0,4.96,Clouds,8,27.0,31.0,3.3,7.4,6.5,7.4,257.53576807228916,662.4912944738834,1.5,4.1,0.3,0.5,200.0,600.0,400.0,920.0,10.0,20.0,26.934437879060603,47.35041029885722,37.14242408895891
5240.0,"River Thalassery At Kunduchira, Kannur",Kerala,,"River Thalassery At Kunduchira, Kannur, Kerala, India",11.7664517,75.5135123,24.73,90.0,4.46,Clouds,8,27.0,31.0,3.5,7.1,7.12699808795411,7.6,185.0,662.4912944738834,1.0,3.9,0.3,0.3,200.0,490.0,400.0,910.0,10.0,20.0,26.15372565098716,47.28932724062271,36.72152644580493
5236.0,"River Thallasserry At Eranjoli Palam, Kannur",Kerala,,"River Thallasserry At Eranjoli Palam, Kannur, Kerala, India",11.7642183,75.5061176,24.73,90.0,4.46,Clouds,8,28.0,31.0,4.0,7.4,7.12699808795411,7.3,350.0,662.4912944738834,1.0,3.0,0.3,1.8,200.0,400.0,350.0,800.0,10.0,20.0,25.382432614444447,37.709628534323755,31.5460305743841
2306.0,River Uppala At Uppala Br.,Kerala,,"River Uppala At Uppala Br., Kerala, India",12.6759561,74.9062622,24.83,91.0,2.93,Clouds,8,27.0,31.0,5.1,7.7,6.4,8.0,113.0,662.4912944738834,1.0,2.4,0.3,0.64,79.0,420.0,280.0,840.0,6.0,94.0,19.42873012401544,36.339634919068146,27.884182521541796
5177.0,"River Valapattanam At Azheekal Port, Azheekode,Kannur",Kerala,,"River Valapattanam At Azheekal Port, Azheekode,Kannur, Kerala, India",11.9355377,75.33227629999999,24.63,90.0,4.43,Clouds,8,20.42956204379562,29.024965940054496,3.0,7.1,6.7,8.0,257.53576807228916,662.4912944738834,1.7601102307957286,3.3000373692077725,0.0,0.0,120.0,480.0,395.1527835914609,1565.5568332596197,5.957692307692308,91.9023746701847,30.663255931859076,44.66482663661843,37.66404128423875
3473.0,"River Valapattanam At Parassinikadavu, Kannur",Kerala,,"River Valapattanam At Parassinikadavu, Kannur, Kerala, India",11.9842763,75.3994546,23.99,92.0,2.79,Clouds,8,26.0,32.0,3.7,8.1,7.12699808795411,7.1,220.0,662.4912944738834,1.3,2.8,0.3,0.3,200.0,450.0,320.0,920.0,10.0,40.0,28.312694690030444,33.78398702234574,31.04834085618809
5235.0,"River Valapattanam At Pavannur, Kannur",Kerala,,"River Valapattanam At Pavannur, Kannur, Kerala, India",11.9949954,75.49564,24.21,94.0,1.86,Clouds,8,26.0,30.0,4.5,8.5,6.4,7.3,101.0,662.4912944738834,1.0,3.0,0.3,0.3,100.0,400.0,200.0,920.0,10.0,20.0,20.360085713419387,35.9586279530518,28.159356833235595
2318.0,"River Valapattanam At Pazhassi Reservoir, Kannur",Kerala,,"River Valapattanam At Pazhassi Reservoir, Kannur, Kerala, India",11.9793151,75.6089193,23.08,96.0,1.04,Clouds,8,26.0,30.0,6.8,8.1,7.12699808795411,7.5,81.0,218.0,1.2,2.6,0.3,0.3,79.0,400.0,200.0,920.0,10.0,20.0,22.672855368821885,34.44657897911615,28.559717173969016
5239.0,"Valapattanam River At Irrity Bridge,Kannur",Kerala,,"Valapattanam River At Irrity Bridge,Kannur, Kerala, India",12.04750106285064,75.46929766601038,24.06,95.0,1.82,Clouds,8,28.0,32.0,4.3,8.5,7.12699808795411,7.5,87.0,250.0,1.0,2.9,0.3,0.3,100.0,400.0,200.0,800.0,10.0,20.0,24.88968948180799,36.29697157960813,30.593330530708062
1442.0,"River Vamanapuram At Vamanapuram, Thiruvananthapuram",Kerala,,"River Vamanapuram At Vamanapuram, Thiruvananthapuram, Kerala, India",8.7200343,76.8980371,25.84,95.0,3.07,Clouds,8,26.0,29.0,6.7,8.0,6.3,7.4,62.0,147.0,1.0,2.0,0.3,0.3,200.0,1800.0,600.0,2200.0,2.0,2.0,16.41721745570624,29.503211188807583,22.96021432225691
5206.0,"River Varattaar At Arattukadavu, Alappuzha",Kerala,,"River Varattaar At Arattukadavu, Alappuzha, Kerala, India",9.2846488,76.4515258,24.46,93.0,3.31,Clouds,8,27.0,29.0,1.1,7.6,6.3,9.2,165.0,594.0,1.2,6.0,0.3,0.52,2.0,1500.0,100.0,4800.0,2.0,400.0,26.63903818524447,73.40050131748522,50.01976975136485
1570.0,"River Nileswaram Near Nileswaram Bridge At Hosdurg, Kasaragod",Kerala,,"River Nileswaram Near Nileswaram Bridge At Hosdurg, Kasaragod, Kerala, India",12.2505289,75.12553059999999,25.04,90.0,4.3,Clouds,8,27.0,31.0,3.8,7.3,6.4,7.7,84.0,662.4912944738834,1.0,2.7,0.3,7.23,2.0,390.0,260.0,800.0,2.0,79.0,21.41084662484864,37.91424948501629,29.662548054932465
1571.0,River Karyankode At Kakkadavu,Kerala,,"River Karyankode At Kakkadavu, Kerala, India",11.73261452553286,76.02176835312353,20.52,98.0,1.51,Clouds,8,27.0,31.0,6.3,7.6,7.1,8.5,65.0,224.0,1.0,2.6,0.3,0.31,2.0,210.0,280.0,700.0,2.0,63.0,21.61956860718597,40.96744339480021,31.29350600099309
1572.0,River Chandragiri At Padiyathadka,Kerala,,"River Chandragiri At Padiyathadka, Kerala, India",12.45067032170624,75.64553796212108,21.13,98.0,1.24,Clouds,4,27.0,31.0,6.9,7.8,6.8,8.2,59.0,167.0,1.0,2.2,0.3,0.5,100.0,380.0,320.0,840.0,2.0,79.0,18.981452392795326,35.68458734745375,27.333019870124538
2292.0,"River Tirur At Thalakkadathur Bridge, Malappuram",Kerala,,"River Tirur At Thalakkadathur Bridge, Malappuram, Kerala, India",10.9294527,75.9403223,23.58,91.0,5.23,Rain,8,22.0,24.0,2.5,5.8,6.7,7.8,102.0,662.4912944738834,1.0,3.0,0.3,0.58,20.0,480.0,31.0,1100.0,2.0,130.0,25.162356022293494,43.060403681862105,34.1113798520778
2293.0,River Kadalundi At Hajirappally,Kerala,,"River Kadalundi At Hajirappally, Kerala, India",11.1360492,75.8272482,23.57,94.0,1.03,Mist,8,22.0,24.0,6.0,9.0,6.6,7.6,81.0,126.0,1.0,3.0,0.3,0.7,20.0,250.0,31.0,490.0,2.0,49.0,19.18371437935188,36.898295322707,28.04100485102944
2302.0,River Nileswaram At Nambiarkal Dam,Kerala,,"River Nileswaram At Nambiarkal Dam, Kerala, India",12.2699365,75.12115380000002,24.43,91.0,3.95,Clouds,8,27.0,32.0,5.1,7.5,6.2,8.0,101.0,662.4912944738834,1.0,2.6,0.3,0.47,2.0,240.0,170.0,790.0,2.0,49.0,18.24434956572341,38.233537735473746,28.23894365059858
5169.0,"River Kakkad At Kakkad ,Kannur",Kerala,,"River Kakkad At Kakkad ,Kannur, Kerala, India",11.8905928,75.38639529999999,24.57,89.0,4.48,Clouds,8,27.0,32.0,2.1,6.8,6.1,7.3,265.0,662.4912944738834,1.0,3.0,0.3,0.3,200.0,400.0,400.0,790.0,10.0,20.0,22.349905390087667,38.58013591828387,30.46502065418577
5231.0,"River Kavvai At Kankol, Kannur",Kerala,,"River Kavvai At Kankol, Kannur, Kerala, India",12.1583892,75.22165199999999,24.36,92.0,3.53,Clouds,8,27.0,30.0,4.5,6.8,6.0,7.4,50.0,346.0,1.0,2.2,0.3,0.64,150.0,310.0,300.0,600.0,10.0,20.0,18.05268059267804,32.56554190652468,25.309111249601358
5171.0,Cheruvathur - Madakkara Harbour At Cheruvathur Panchayath Kasaragod,Kerala,,"Cheruvathur - Madakkara Harbour At Cheruvathur Panchayath Kasaragod, Kerala, India",12.2107614,75.1290081,24.42,91.0,4.06,Clouds,8,20.42956204379562,29.024965940054496,1.6,7.4,6.4,8.1,257.53576807228916,662.4912944738834,1.0,2.8,0.0,0.0,28.0,350.0,395.1527835914609,1565.5568332596197,5.957692307692308,91.9023746701847,24.801016452561626,40.63119030809004,32.71610338032583
5237.0,"River Kakkad At Varanam Kadavu Bridge, Kannur",Kerala,,"River Kakkad At Varanam Kadavu Bridge, Kannur, Kerala, India",11.8905928,75.38639529999999,24.57,89.0,4.48,Clouds,8,26.0,32.0,2.9,7.7,6.0,7.4,630.0,662.4912944738834,1.2,4.4,0.3,0.42,100.0,600.0,200.0,920.0,10.0,20.0,22.150351698559213,49.35246259956944,35.75140714906433
5238.0,"River Ancharakandy At Odakadavu Bridge, Kannur",Kerala,,"River Ancharakandy At Odakadavu Bridge, Kannur, Kerala, India",11.8525414,75.4846799,24.33,91.0,3.51,Clouds,8,28.0,30.0,6.3,7.8,7.12699808795411,7.4,120.0,662.4912944738834,1.0,3.9,0.3,0.46,100.0,460.0,200.0,920.0,10.0,20.0,21.80510957497924,45.04546596053846,33.425287767758846
5242.0,"Pallangode Bridge At Puthiyambalam, Kasaragod",Kerala,,"Pallangode Bridge At Puthiyambalam, Kasaragod, Kerala, India",12.5635225,75.2500937,23.17,96.0,0.35,Clouds,8,27.0,32.0,7.0,7.8,6.7,8.1,62.0,121.0,1.0,1.7,0.3,0.31,32.0,430.0,200.0,940.0,4.0,70.0,18.22610511022555,30.999343418605907,24.61272426441573
5243.0,"Chandragiri River At Chandragiri Bridge, Kasaragod",Kerala,,"Chandragiri River At Chandragiri Bridge, Kasaragod, Kerala, India",12.499128,74.9989313,23.9,93.0,2.58,Clouds,8,26.0,32.0,2.1,7.9,6.6,7.7,103.0,662.4912944738834,1.0,2.5,0.3,2.38,100.0,5000.0,270.0,6200.0,2.0,91.9023746701847,25.223042497366215,36.54756215233626,30.88530232485124
5197.0,"River Killiyar At Maruthamkuzhi Bridge, Thiruvananthapuram",Kerala,,"River Killiyar At Maruthamkuzhi Bridge, Thiruvananthapuram, Kerala, India",8.5214999,76.97426229999999,25.86,78.0,6.17,Mist,8,26.0,29.0,6.3,7.5,6.4,7.4,133.0,220.0,1.0,3.6,0.3,0.3,95.31980715146645,3300.0,2000.0,4500.0,2.0,2.0,17.58790805418573,43.88622069366839,30.737064373927062
5214.0,"River Wadakkanchery At Wadakkanchery Palam,Thrissur",Kerala,,"River Wadakkanchery At Wadakkanchery Palam,Thrissur, Kerala, India",10.6643834,76.2492717,24.6,95.0,2.02,Rain,8,15.0,29.0,1.3,7.1,6.3,8.4,99.0,380.0,1.0,2.9,0.3,0.3,2.0,400.0,100.0,920.0,2.0,2.0,24.68547091091959,43.682174111915174,34.18382251141738
5216.0,"River Kannadippuzha At Thirunellayi Bridge, Palakkad",Kerala,,"River Kannadippuzha At Thirunellayi Bridge, Palakkad, Kerala, India",10.750568,76.655222,24.66,99.0,3.98,Rain,8,27.0,34.0,5.3,7.6,7.6,8.4,368.0,499.0,1.3,3.2,0.3,0.53,2.0,400.0,2.0,600.0,2.0,40.0,28.531833303334285,45.38615381406223,36.95899355869826
5217.0,"River Nellipuzha At Nellipuzha Bridge, Mannarkkad, Palakkad",Kerala,,"River Nellipuzha At Nellipuzha Bridge, Mannarkkad, Palakkad, Kerala, India",10.9931528,76.4695005,25.0,96.0,1.23,Rain,8,23.0,30.0,5.7,8.3,7.3,8.0,58.0,163.0,1.0,2.5,0.3,0.67,100.0,400.0,200.0,600.0,2.0,100.0,23.73497902324378,36.231279247731315,29.983129135487548
5218.0,"River Kunthipuzha At Mannarkkad, Palakkad",Kerala,,"River Kunthipuzha At Mannarkkad, Palakkad, Kerala, India",11.01630105699994,76.27095481118934,24.66,94.0,1.43,Rain,8,23.0,29.0,6.4,8.3,7.3,8.1,90.0,125.0,1.0,2.9,0.3,0.42,2.0,490.0,2.0,600.0,2.0,60.0,22.625770011141583,40.11963589538138,31.37270295326148
5220.0,River Tirur At Naduvilangadi,Kerala,,"River Tirur At Naduvilangadi, Kerala, India",10.9203494,75.91656449999999,23.53,90.0,5.94,Rain,8,22.0,24.0,3.0,6.5,6.6,8.0,141.0,662.4912944738834,1.0,2.4,0.3,2.5,40.0,350.0,79.0,840.0,20.0,150.0,23.816648770458222,38.23765233658206,31.02715055352014
5221.0,"River Iruvazhinji At Cheppilankode, Kozhikode",Kerala,,"River Iruvazhinji At Cheppilankode, Kozhikode, Kerala, India",11.3655728,76.0080828,23.41,94.0,1.55,Clouds,8,25.0,31.0,6.3,8.2,6.1,7.0,27.0,56.0,1.0,1.0,0.3,0.33,700.0,3200.0,920.0,6400.0,31.0,220.0,16.021887243564557,19.07480086113407,17.548344052349314
5222.0,"River Iruvazhinji At Mukkam Bridge, Kozhikode",Kerala,,"River Iruvazhinji At Mukkam Bridge, Kozhikode, Kerala, India",11.3185056,75.9964643,23.45,93.0,1.8,Clouds,8,25.0,29.0,6.6,8.1,6.1,6.9,30.0,106.0,1.0,1.2,0.3,0.46,700.0,3800.0,1300.0,5800.0,10.0,210.0,15.560325512290255,20.47415995666374,18.017242734476998
5223.0,"River Iruvazhinji At Kuttipalakal, Kozhikode",Kerala,,"River Iruvazhinji At Kuttipalakal, Kozhikode, Kerala, India",11.3205916,75.9899897,23.42,93.0,1.8,Clouds,8,26.0,29.0,5.2,7.9,6.1,7.1,31.0,62.0,1.0,1.4,0.3,0.53,160.0,4100.0,400.0,6300.0,10.0,240.0,17.55696174766088,23.68185640152881,20.619409074594845
2651.0,"River Amba At D/S Of Waken Bridge, Village- Waken Phata, Taluka- Roha, District- Raigad. ( U/S Of The Jackwells Of M/S Supreme Petrochemicals & Midc )",Maharashtr A,,"River Amba At D/S Of Waken Bridge, Village- Waken Phata, Taluka- Roha, District- Raigad. ( U/S Of The Jackwells Of M/S Supreme Petrochemicals & Midc ), Maharashtr A, India",18.4389511,73.1167514,25.17,88.0,1.07,Clouds,6,27.0,32.0,5.6,7.5,7.5,8.2,75.0,816.0,1.0,3.5,0.3,0.55,5.0,79.0,23.0,240.0,2.0,8.0,25.021806129999764,46.75140383734106,35.88660498367041
2653.0,"River Bhatsa At D/S Of Liberty Oil Mills, Village- Satne, Taluka- Shahapur, District- Thane.",Maharashtr A,,"River Bhatsa At D/S Of Liberty Oil Mills, Village- Satne, Taluka- Shahapur, District- Thane., Maharashtr A, India",19.4498479,73.34844079999999,25.06,86.0,1.93,Clouds,6,18.0,38.0,5.3,7.5,7.5,8.8,68.0,387.0,1.0,4.0,0.3,0.85,2.0,34.0,43.0,130.0,2.0,5.0,25.48366398094512,54.34525416078245,39.914459070863785
1461.0,"River Bhatsa At D/S Of Pise Dam, Village. Pise, Taluka. Bhiwandi, District. Thane.",Maharashtr A,,"River Bhatsa At D/S Of Pise Dam, Village. Pise, Taluka. Bhiwandi, District. Thane., Maharashtr A, India",19.5132484,73.4175646,25.02,87.0,1.94,Clouds,6,28.0,36.0,5.9,7.5,7.5,8.3,75.0,223.0,1.0,4.4,0.3,0.65,2.0,8.0,22.0,110.0,2.0,2.0,24.558227823765574,54.71726876591215,39.637748294838865
2654.0,"River Bhatsa At U/S Of Liberty Oil Mills, Satnel, Shahapur, Thane.",Maharashtr A,,"River Bhatsa At U/S Of Liberty Oil Mills, Satnel, Shahapur, Thane., Maharashtr A, India",19.4520777,73.3279586,25.06,86.0,1.93,Clouds,6,18.0,36.0,5.3,7.5,7.4,8.8,63.0,386.0,1.0,4.0,0.3,0.41,2.0,22.0,8.0,110.0,2.0,4.0,24.90293353306896,54.325555987799966,39.61424476043446
1092.0,"River Kalu At Atale Village, Village- Atale, Taluka- Kalyan, District- Thane.",Maharashtr A,,"River Kalu At Atale Village, Village- Atale, Taluka- Kalyan, District- Thane., Maharashtr A, India",19.2403305,73.1305395,27.23,76.0,2.2,Clouds,6,23.0,30.0,1.0,7.5,6.8,8.1,113.0,662.4912944738834,1.0,3.3000373692077725,0.3,1.9082062950322338,7.0,490.0,23.0,1600.0,2.0,46.0,28.052544513108945,44.70136082630351,36.37695266970623
2670.0,"River Kan At Sakri Water Works, Village. Sakri, Taluka. Dhule, District. Dhule.",Maharashtr A,,"River Kan At Sakri Water Works, Village. Sakri, Taluka. Dhule, District. Dhule., Maharashtr A, India",20.9926045,74.3140742,25.63,75.0,3.32,Clouds,5,16.0,22.0,5.6,7.0,7.2,7.8,333.0,1584.0,2.6,3.8,0.4129202168861347,5.96,4.0,6.0,40.0,75.0,2.0,2.0,36.444682337326256,47.843378875979624,42.14403060665294
2198.0,"River Kundalika At Are Khurd (Saline Zone), Village- Arekhurd,Taluka- Roha, District- Raigad.",Maharashtr A,,"River Kundalika At Are Khurd (Saline Zone), Village- Arekhurd,Taluka- Roha, District- Raigad., Maharashtr A, India",18.4407497,73.1218414,25.17,88.0,1.07,Clouds,6,27.0,33.0,3.7,7.0,6.7,7.8,108.0,662.4912944738834,1.0,3.3000373692077725,0.48,3.68,2.0,130.0,23.0,920.0,2.0,7.0,23.31283467167812,43.68678189575454,33.499808283716334
2672.0,"River Kundalika At Dhatav At Jackwell, Village. Dhatav ,Taluka. Roha, District. Raigad.",Maharashtr A,,"River Kundalika At Dhatav At Jackwell, Village. Dhatav ,Taluka. Roha, District. Raigad., Maharashtr A, India",18.4189422,73.1549261,25.38,88.0,1.18,Clouds,6,27.0,35.0,5.4,7.5,7.5,8.6,71.0,101.0,1.0,3.5,0.3,0.54,2.0,49.0,13.0,170.0,2.0,2.0,25.329346149702367,49.06445460756403,37.1969003786332
1152.0,"River Kundalika At Roha Bridge, Village-Roha, Taluka- Roha, District- Raigad.",Maharashtr A,,"River Kundalika At Roha Bridge, Village-Roha, Taluka- Roha, District- Raigad., Maharashtr A, India",18.4407497,73.1218414,25.17,88.0,1.07,Clouds,6,27.0,33.0,5.2,7.2,7.3,9.0,79.0,180.0,1.0,4.0,0.3,0.59,2.0,49.0,7.0,170.0,2.0,9.0,24.476532761222387,55.96424992586256,40.220391343542474
2671.0,"River Kundalika Near Salav Bridge (Saline Zone), Village-Salav, Taluka- Roha, District- Raigad.",Maharashtr A,,"River Kundalika Near Salav Bridge (Saline Zone), Village-Salav, Taluka- Roha, District- Raigad., Maharashtr A, India",18.4389511,73.1167514,25.17,88.0,1.07,Clouds,6,27.0,31.0,4.0,6.7,7.0,8.2,257.53576807228916,662.4912944738834,5.0,3.3000373692077725,0.47,2.97,8.0,130.0,33.0,920.0,2.0,7.0,57.495654526620356,46.44601993704657,51.970837231833464
2168.0,"River Mithi Near Road Bridge, Village- Mahim, Taluka- Bandra, District- Mumbai.",Maharashtr A,,"River Mithi Near Road Bridge, Village- Mahim, Taluka- Bandra, District- Mumbai., Maharashtr A, India",19.0535605,72.8424116,28.03,83.0,4.12,Mist,6,26.0,29.0,0.3,4.5,6.9,8.1,576.0,662.4912944738834,1.0,3.3000373692077725,0.3,6.74,95.31980715146645,636.0863579474343,2200.0,1565.5568332596197,5.957692307692308,91.9023746701847,29.745374043970557,49.54802837516424,39.6467012095674
2676.0,"River Muchkundi At Waked, Ratnagiri, Near M/S Asahi India Glass Ltd., Village- Waked, Taluka- Lanja, District- Ratnagiri.",Maharashtr A,,"River Muchkundi At Waked, Ratnagiri, Near M/S Asahi India Glass Ltd., Village- Waked, Taluka- Lanja, District- Ratnagiri., Maharashtr A, India",16.8559112,73.541744,24.44,89.0,0.63,Clouds,6,25.0,31.0,6.0,8.0,7.2,8.2,78.0,662.4912944738834,1.8,3.0,0.3,0.71,4.0,7.0,15.0,26.0,2.0,2.0,29.243127055983397,41.851380616569756,35.547253836276575
2685.0,"River Patalganga At D/S Of Kharpada Bridge , Village- Kharpada, Taluka- Khalapur, District- Raigad.",Maharashtr A,,"River Patalganga At D/S Of Kharpada Bridge , Village- Kharpada, Taluka- Khalapur, District- Raigad., Maharashtr A, India",18.8015024,73.3227867,27.34,89.0,1.22,Clouds,6,26.0,33.0,5.4,7.0,6.9,7.9,70.0,662.4912944738834,2.2,8.0,0.79,2.79,2.0,110.0,23.0,540.0,2.0,9.0,31.734184039773375,82.88758523117657,57.31088463547498
2689.0,"River Patalganga At Gagangiri Maharaj Temple, Village- Khopoli, Taluka- Khalapur, District- Raigad.",Maharashtr A,,"River Patalganga At Gagangiri Maharaj Temple, Village- Khopoli, Taluka- Khalapur, District- Raigad., Maharashtr A, India",18.7861522,73.35405589999999,27.16,91.0,1.14,Clouds,6,26.0,32.0,6.3,7.5,7.2,8.1,51.0,254.0,2.2,5.0,0.3,0.96,2.0,49.0,23.0,280.0,2.0,9.0,32.070090087474654,58.515320289874715,45.29270518867469
2687.0,"River Patalganga At Khalapur Pumping Station, Village- Khalapur, Taluka- Khalapur, District- Raigad.",Maharashtr A,,"River Patalganga At Khalapur Pumping Station, Village- Khalapur, Taluka- Khalapur, District- Raigad., Maharashtr A, India",18.8305523,73.2846445,25.27,88.0,1.35,Clouds,6,27.0,33.0,6.2,7.4,7.0,8.1,74.0,218.0,2.2,5.0,0.3,1.23,2.0,49.0,23.0,120.0,2.0,2.0,31.063065470833504,58.67894614944431,44.871005810138904
2688.0,"River Patalganga At Savroli Bridge, Village- Savroli,Taluka- Khalapur,District- Raigad.",Maharashtr A,,"River Patalganga At Savroli Bridge, Village- Savroli,Taluka- Khalapur,District- Raigad., Maharashtr A, India",18.86244,73.207489,26.18,85.0,1.81,Clouds,6,26.0,32.0,5.8,7.4,7.0,8.2,80.0,218.0,2.2,5.0,0.3,1.22,2.0,110.0,40.0,540.0,2.0,2.0,31.68003179254334,59.27851437814763,45.47927308534548
1151.0,"River Patalganga At Shilphata Bridge, Village- Khopoli,Taluka- Khalapur, District- Raigad.",Maharashtr A,,"River Patalganga At Shilphata Bridge, Village- Khopoli,Taluka- Khalapur, District- Raigad., Maharashtr A, India",18.8015024,73.3227867,27.34,89.0,1.22,Clouds,6,26.0,33.0,6.3,7.4,7.0,8.2,70.0,276.0,2.2,5.0,0.3,0.53,5.0,23.0,23.0,130.0,2.0,5.0,30.909724834505237,59.22631286709862,45.06801885080193
2686.0,"River Patalganga At Vyal Pump House, Village. Vyal, Taluka. Khalapur, District. Raigad.",Maharashtr A,,"River Patalganga At Vyal Pump House, Village. Vyal, Taluka. Khalapur, District. Raigad., Maharashtr A, India",18.8015024,73.3227867,27.34,89.0,1.22,Clouds,6,27.0,32.0,6.2,7.3,7.0,8.1,78.0,217.0,2.2,5.0,0.3,1.19,2.0,22.0,17.0,130.0,2.0,2.0,31.06304770365324,58.82374720627112,44.94339745496218
